[
  { "name": "深圳市消防救援支队", "lng": 114.085947, "lat": 22.547 },
  { "name": "福田区消防救援大队", "lng": 114.055, "lat": 22.541 },
  { "name": "罗湖区消防救援大队", "lng": 114.117, "lat": 22.556 },
  { "name": "南山区消防救援大队", "lng": 113.930, "lat": 22.533 },
  { "name": "宝安区消防救援大队", "lng": 113.883, "lat": 22.555 },
  { "name": "龙岗区消防救援大队", "lng": 114.246, "lat": 22.721 },
  { "name": "盐田区消防救援大队", "lng": 114.236, "lat": 22.557 }
] 