[
  {
    "store_name": "小米之家",
    "address": "深南大道4005号联通大厦(福田地铁站3B口旁)",
    "tel": "13687185807",
    "province": "广东省",
    "city": "深圳市",
    "district": "福田区",
    "full_region": "深圳市 福田区",
    "position": {
      "lat": "22.538625",
      "lng": "114.054675"
    }
  },
  {
    "store_name": "小米之家(滨河电信厅店)",
    "address": "滨河大道3069-2号",
    "tel": "19967221112",
    "province": "广东省",
    "city": "深圳市",
    "district": "福田区",
    "full_region": "深圳市 福田区",
    "position": {
      "lat": "22.532465",
      "lng": "114.084599"
    }
  },
  {
    "store_name": "小米之家(福田星河COCO Park店)",
    "address": "福华三路268号星河COCOPARKB1",
    "tel": "0755-82796729",
    "province": "广东省",
    "city": "深圳市",
    "district": "福田区",
    "full_region": "深圳市 福田区",
    "position": {
      "lat": "22.533262",
      "lng": "114.054594"
    }
  },
  {
    "store_name": "小米之家(世纪汇店)",
    "address": "华强北街道世纪汇商场1层106A号",
    "tel": "18126228597",
    "province": "广东省",
    "city": "深圳市",
    "district": "福田区",
    "full_region": "深圳市 福田区",
    "position": {
      "lat": "22.541105",
      "lng": "114.083780"
    }
  },
  {
    "store_name": "小米之家",
    "address": "安托山七路与侨香路交叉口西北60米",
    "tel": [],
    "province": "广东省",
    "city": "深圳市",
    "district": "福田区",
    "full_region": "深圳市 福田区",
    "position": {
      "lat": "22.550873",
      "lng": "114.013874"
    }
  },
  {
    "store_name": "小米之家",
    "address": "金稻田路2001福安购物广场F1层",
    "tel": [],
    "province": "广东省",
    "city": "深圳市",
    "district": "罗湖区",
    "full_region": "深圳市 罗湖区",
    "position": {
      "lat": "22.584659",
      "lng": "114.119643"
    }
  },
  {
    "store_name": "小米之家(卓悦中心汽车体验店)",
    "address": "福田街道卓悦中心B1层东区B159-160",
    "tel": "0755-83263050;17158686756",
    "province": "广东省",
    "city": "深圳市",
    "district": "福田区",
    "full_region": "深圳市 福田区",
    "position": {
      "lat": "22.536690",
      "lng": "114.065799"
    }
  },
  {
    "store_name": "小米之家(罗湖1234店)",
    "address": "东门街道东门社区建设路3018号地铁远为大厦地下一层B102小米之家",
    "tel": "0755-25476604;17620301211",
    "province": "广东省",
    "city": "深圳市",
    "district": "罗湖区",
    "full_region": "深圳市 罗湖区",
    "position": {
      "lat": "22.544571",
      "lng": "114.116064"
    }
  },
  {
    "store_name": "小米之家(深业上城店)",
    "address": "莲花一村社区皇岗路5001号深业上城2层",
    "tel": "0755-82567565;13005448836;13392152767",
    "province": "广东省",
    "city": "深圳市",
    "district": "福田区",
    "full_region": "深圳市 福田区",
    "position": {
      "lat": "22.556620",
      "lng": "114.069875"
    }
  },
  {
    "store_name": "小米之家KKone专卖店",
    "address": "滨河大道9289号kk one商场负一楼B128-129号铺小米之家",
    "tel": "0755-23608689",
    "province": "广东省",
    "city": "深圳市",
    "district": "福田区",
    "full_region": "深圳市 福田区",
    "position": {
      "lat": "22.527910",
      "lng": "114.026617"
    }
  },
  {
    "store_name": "小米之家(兆鑫汇金广场店)",
    "address": "南湖街道嘉北社区深南东路3085号兆鑫汇金广场负一楼153号铺",
    "tel": "0755-25128386",
    "province": "广东省",
    "city": "深圳市",
    "district": "罗湖区",
    "full_region": "深圳市 罗湖区",
    "position": {
      "lat": "22.542318",
      "lng": "114.116746"
    }
  },
  {
    "store_name": "小米之家(宝能环球汇西丽店)",
    "address": "桃源街道福光社区留仙大道3288号(塘朗地铁站D口旁)宝能环球汇(西丽店)L1层L1004-B",
    "tel": "13076997142",
    "province": "广东省",
    "city": "深圳市",
    "district": "南山区",
    "full_region": "深圳市 南山区",
    "position": {
      "lat": "22.590651",
      "lng": "113.997035"
    }
  },
  {
    "store_name": "小米之家(深圳福田区华强电子世界专卖店)",
    "address": "华强北路1019号华强广场B座华强电子世界二店1层H1001",
    "tel": [],
    "province": "广东省",
    "city": "深圳市",
    "district": "福田区",
    "full_region": "深圳市 福田区",
    "position": {
      "lat": "22.543656",
      "lng": "114.085962"
    }
  },
  {
    "store_name": "小米之家(中洲湾C Future City店)",
    "address": "沙头街道滨河大道与11号路交汇处中洲湾商业中心一期2栋一层122号小米之家",
    "tel": "19925159251",
    "province": "广东省",
    "city": "深圳市",
    "district": "福田区",
    "full_region": "深圳市 福田区",
    "position": {
      "lat": "22.527018",
      "lng": "114.029283"
    }
  },
  {
    "store_name": "小米之家(iN城市广场店)",
    "address": "深南中路1095号城市广场·深圳GF层1027号",
    "tel": "0755-25111856",
    "province": "广东省",
    "city": "深圳市",
    "district": "福田区",
    "full_region": "深圳市 福田区",
    "position": {
      "lat": "22.539161",
      "lng": "114.098477"
    }
  },
  {
    "store_name": "小米之家(广东深圳福田区领展中心专卖店)",
    "address": "福安社区福华一路3号领展中心城L1层1008",
    "tel": [],
    "province": "广东省",
    "city": "深圳市",
    "district": "福田区",
    "full_region": "深圳市 福田区",
    "position": {
      "lat": "22.535211",
      "lng": "114.060291"
    }
  },
  {
    "store_name": "小米之家(广东深圳福田区万科里瑧专卖店)",
    "address": "万科里·瑧(安托山地铁站出入口旁)",
    "tel": "18926502203",
    "province": "广东省",
    "city": "深圳市",
    "district": "福田区",
    "full_region": "深圳市 福田区",
    "position": {
      "lat": "22.549293",
      "lng": "114.006768"
    }
  },
  {
    "store_name": "小米之家(广东深圳福田区八卦岭沃尔玛专卖店)",
    "address": "八卦二路旭飞花园B栋1-2层小米之家",
    "tel": "15338893413",
    "province": "广东省",
    "city": "深圳市",
    "district": "福田区",
    "full_region": "深圳市 福田区",
    "position": {
      "lat": "22.558648",
      "lng": "114.103794"
    }
  },
  {
    "store_name": "小米之家广东深圳福田区卓悦汇店",
    "address": "中康路128号(上梅林地铁站E口步行50米)",
    "tel": "0755-82728073",
    "province": "广东省",
    "city": "深圳市",
    "district": "福田区",
    "full_region": "深圳市 福田区",
    "position": {
      "lat": "22.569138",
      "lng": "114.059876"
    }
  },
  {
    "store_name": "小米之家(绿景佐阾虹湾店)",
    "address": "北环大道6098号绿景佐阾虹湾购物中心L1层L1025",
    "tel": "0755-83112954;13603084601",
    "province": "广东省",
    "city": "深圳市",
    "district": "福田区",
    "full_region": "深圳市 福田区",
    "position": {
      "lat": "22.560790",
      "lng": "114.039094"
    }
  },
  {
    "store_name": "小米之家(红日子店)",
    "address": "泥岗社区泥岗西村59栋红日子购物广场120一楼",
    "tel": "13798311799",
    "province": "广东省",
    "city": "深圳市",
    "district": "罗湖区",
    "full_region": "深圳市 罗湖区",
    "position": {
      "lat": "22.567266",
      "lng": "114.098852"
    }
  },
  {
    "store_name": "小米之家(KK TIME购物中心店)",
    "address": "翠竹街道水贝二路88号KKTIME购物中心B1层B103",
    "tel": [],
    "province": "广东省",
    "city": "深圳市",
    "district": "罗湖区",
    "full_region": "深圳市 罗湖区",
    "position": {
      "lat": "22.569862",
      "lng": "114.123708"
    }
  },
  {
    "store_name": "小米之家(方大城店)",
    "address": "龙珠四路2号方大城购物中心L2L225a",
    "tel": "15804647771",
    "province": "广东省",
    "city": "深圳市",
    "district": "南山区",
    "full_region": "深圳市 南山区",
    "position": {
      "lat": "22.530697",
      "lng": "113.969224"
    }
  },
  {
    "store_name": "小米之家(深圳欢乐海岸店)",
    "address": "沙河街道滨海大道2008号欢乐海岸曲水湾4栋4-2A、4-3A",
    "tel": "0755-86328163;0755-86328223",
    "province": "广东省",
    "city": "深圳市",
    "district": "南山区",
    "full_region": "深圳市 南山区",
    "position": {
      "lat": "22.523035",
      "lng": "113.991725"
    }
  },
  {
    "store_name": "小米之家(八卦二路店)",
    "address": "八卦六路与牛仔街交叉口东北120米",
    "tel": [],
    "province": "广东省",
    "city": "深圳市",
    "district": "福田区",
    "full_region": "深圳市 福田区",
    "position": {
      "lat": "22.560207",
      "lng": "114.097582"
    }
  },
  {
    "store_name": "小米之家(方大城店)",
    "address": "龙珠四路2号方大城购物中心二层L225a铺",
    "tel": "0755-26924657;15217276878",
    "province": "广东省",
    "city": "深圳市",
    "district": "南山区",
    "full_region": "深圳市 南山区",
    "position": {
      "lat": "22.556757",
      "lng": "113.973213"
    }
  },
  {
    "store_name": "小米之家(福田南移动厅分店)",
    "address": "福宁街76号",
    "tel": [],
    "province": "广东省",
    "city": "深圳市",
    "district": "福田区",
    "full_region": "深圳市 福田区",
    "position": {
      "lat": "22.533414",
      "lng": "114.078081"
    }
  },
  {
    "store_name": "小米之家(西丽益田店)",
    "address": "桃源街道众冠时代广场益田假日里购物中心小米之家",
    "tel": "0755-26904313;13433396618",
    "province": "广东省",
    "city": "深圳市",
    "district": "南山区",
    "full_region": "深圳市 南山区",
    "position": {
      "lat": "22.582918",
      "lng": "113.964711"
    }
  },
  {
    "store_name": "小米之家(坂田吉华路店)",
    "address": "坂田街道吉华路591-12展誉公馆左边",
    "tel": "18033449308",
    "province": "广东省",
    "city": "深圳市",
    "district": "龙岗区",
    "full_region": "深圳市 龙岗区",
    "position": {
      "lat": "22.635643",
      "lng": "114.064815"
    }
  },
  {
    "store_name": "小米之家(中航城君尚购物中心店)",
    "address": "华强北街道华航社区中航城君尚购物中心C区负一楼B161",
    "tel": "0755-82564940",
    "province": "广东省",
    "city": "深圳市",
    "district": "福田区",
    "full_region": "深圳市 福田区",
    "position": {
      "lat": "22.542374",
      "lng": "114.082919"
    }
  },
  {
    "store_name": "小米之家(深圳坂田湾畔MALL专卖店)",
    "address": "坂田街道坂雪岗大道与永香路交汇处湾畔Mall-1003商铺",
    "tel": "0755-84874750",
    "province": "广东省",
    "city": "深圳市",
    "district": "龙岗区",
    "full_region": "深圳市 龙岗区",
    "position": {
      "lat": "22.620536",
      "lng": "114.071613"
    }
  },
  {
    "store_name": "小米之家(深圳天河城购物中心店)",
    "address": "东晓街道东晓社区太白路3008号深圳天河城负一层B115小米之家",
    "tel": "0755-22377786",
    "province": "广东省",
    "city": "深圳市",
    "district": "罗湖区",
    "full_region": "深圳市 罗湖区",
    "position": {
      "lat": "22.577651",
      "lng": "114.134326"
    }
  },
  {
    "store_name": "小米之家(民治沃尔玛)",
    "address": "沃尔玛(水榭春天店)",
    "tel": [],
    "province": "广东省",
    "city": "深圳市",
    "district": "龙华区",
    "full_region": "深圳市 龙华区",
    "position": {
      "lat": "22.628363",
      "lng": "114.025813"
    }
  },
  {
    "store_name": "小米之家(融悦世方里店)",
    "address": "惠华路208号融悦世方里F1层",
    "tel": "14777266014",
    "province": "广东省",
    "city": "深圳市",
    "district": "龙岗区",
    "full_region": "深圳市 龙岗区",
    "position": {
      "lat": "22.701964",
      "lng": "114.107112"
    }
  },
  {
    "store_name": "小米之家(深圳石厦时代广场专卖店)",
    "address": "石厦北二街89号马成时代广场一楼107A铺",
    "tel": "0755-83796748",
    "province": "广东省",
    "city": "深圳市",
    "district": "福田区",
    "full_region": "深圳市 福田区",
    "position": {
      "lat": "22.520403",
      "lng": "114.052992"
    }
  },
  {
    "store_name": "小米之家(广东深圳罗湖区万象城专卖店)",
    "address": "桂园街道新围社区书城路1号都市名园深圳万象城三期三层A区T356",
    "tel": "13312938116",
    "province": "广东省",
    "city": "深圳市",
    "district": "罗湖区",
    "full_region": "深圳市 罗湖区",
    "position": {
      "lat": "22.538977",
      "lng": "114.109776"
    }
  },
  {
    "store_name": "小米之家(广东深圳罗湖区太阳广场专卖店)",
    "address": "建设路3006号太阳广场2楼夹层小米店",
    "tel": "0755-25106287",
    "province": "广东省",
    "city": "深圳市",
    "district": "罗湖区",
    "full_region": "深圳市 罗湖区",
    "position": {
      "lat": "22.545080",
      "lng": "114.118380"
    }
  },
  {
    "store_name": "小米之家赛格科技园店",
    "address": "华强北街道振兴路142-1小米之家",
    "tel": "0755-23992505",
    "province": "广东省",
    "city": "深圳市",
    "district": "福田区",
    "full_region": "深圳市 福田区",
    "position": {
      "lat": "22.546651",
      "lng": "114.087005"
    }
  },
  {
    "store_name": "小米之家(广东深圳龙华区AT MALL 上塘荟专卖店)",
    "address": "民治街道广东省深圳市龙华区青龙西街",
    "tel": "13332178008",
    "province": "广东省",
    "city": "深圳市",
    "district": "龙华区",
    "full_region": "深圳市 龙华区",
    "position": {
      "lat": "22.636886",
      "lng": "114.013836"
    }
  },
  {
    "store_name": "小米之家(广东深圳市南山区益田假日广场专卖店)",
    "address": "沙河街道华夏街社区深南大道9028号益田假日广场B2-23",
    "tel": "18138413685",
    "province": "广东省",
    "city": "深圳市",
    "district": "南山区",
    "full_region": "深圳市 南山区",
    "position": {
      "lat": "22.537408",
      "lng": "113.975088"
    }
  },
  {
    "store_name": "小米之家",
    "address": "布沙路215号汇佳购物广场F1层",
    "tel": [],
    "province": "广东省",
    "city": "深圳市",
    "district": "龙岗区",
    "full_region": "深圳市 龙岗区",
    "position": {
      "lat": "22.605975",
      "lng": "114.142542"
    }
  },
  {
    "store_name": "小米之家(深圳民治天虹商场专卖店)",
    "address": "民治街道横岭社区民治大道58号民治天虹商场L1层1026铺小米之家",
    "tel": "0755-21001193",
    "province": "广东省",
    "city": "深圳市",
    "district": "龙华区",
    "full_region": "深圳市 龙华区",
    "position": {
      "lat": "22.610180",
      "lng": "114.045188"
    }
  },
  {
    "store_name": "小米之家(广东深圳龙华区东环天虹专卖店)",
    "address": "龙华街道东环一路天虹商场东环店1楼小米之家",
    "tel": "19926484728",
    "province": "广东省",
    "city": "深圳市",
    "district": "龙华区",
    "full_region": "深圳市 龙华区",
    "position": {
      "lat": "22.641198",
      "lng": "114.048201"
    }
  },
  {
    "store_name": "小米之家(深圳星河WORLD.COCOPARK专卖店)",
    "address": "五和大道与雅宝路1号星河WORLD·COCO Park西区L2层",
    "tel": "18816851048",
    "province": "广东省",
    "city": "深圳市",
    "district": "龙岗区",
    "full_region": "深圳市 龙岗区",
    "position": {
      "lat": "22.603473",
      "lng": "114.058850"
    }
  },
  {
    "store_name": "小米之家(红山6979店)",
    "address": "民治街道腾龙路红山6979商业中心北区3期8栋1楼118-119号",
    "tel": "0755-28017297;18126375114",
    "province": "广东省",
    "city": "深圳市",
    "district": "龙华区",
    "full_region": "深圳市 龙华区",
    "position": {
      "lat": "22.622581",
      "lng": "114.024606"
    }
  },
  {
    "store_name": "小米之家(宝能中心店)接全屋智能定制",
    "address": "笋岗街道田心社区宝安北路3008号宝能中心E栋1层1016号铺",
    "tel": "13128700815",
    "province": "广东省",
    "city": "深圳市",
    "district": "罗湖区",
    "full_region": "深圳市 罗湖区",
    "position": {
      "lat": "22.564502",
      "lng": "114.110316"
    }
  },
  {
    "store_name": "小米之家-全屋智能(卓悦INTOWN店承接全屋智能)",
    "address": "福田街道福山社区金田路2030号卓越世纪中心1层L119号铺",
    "tel": "0755-23612586",
    "province": "广东省",
    "city": "深圳市",
    "district": "福田区",
    "full_region": "深圳市 福田区",
    "position": {
      "lat": "22.531374",
      "lng": "114.065057"
    }
  },
  {
    "store_name": "小米之家(广东深圳福田区东海缤纷天地专卖店)",
    "address": "香蜜湖街道东海社区深南大道7888号东海国际中心二期A区东海缤纷天地L1-1027",
    "tel": "18138862870",
    "province": "广东省",
    "city": "深圳市",
    "district": "福田区",
    "full_region": "深圳市 福田区",
    "position": {
      "lat": "22.536575",
      "lng": "114.020425"
    }
  },
  {
    "store_name": "小米之家(广东深圳龙岗区景华汇购物中心专卖店)",
    "address": "吉华街道吉华路239号景华汇购物中心一层L1-13S、L1-14S铺",
    "tel": [],
    "province": "广东省",
    "city": "深圳市",
    "district": "龙岗区",
    "full_region": "深圳市 龙岗区",
    "position": {
      "lat": "22.611851",
      "lng": "114.111192"
    }
  },
  {
    "store_name": "小米之家(深圳布吉佳兆业广场专卖店)",
    "address": "布吉佳兆业广场一楼L123-124商铺靠近3号门奈雪茶对面",
    "tel": "0755-28289698",
    "province": "广东省",
    "city": "深圳市",
    "district": "龙岗区",
    "full_region": "深圳市 龙岗区",
    "position": {
      "lat": "22.606257",
      "lng": "114.130695"
    }
  },
  {
    "store_name": "小米之家(深圳湾睿印店)",
    "address": "深湾一路与白石三路交汇处深圳湾睿印RAILIN负一楼B117号铺小米之家",
    "tel": "0755-22672816",
    "province": "广东省",
    "city": "深圳市",
    "district": "南山区",
    "full_region": "深圳市 南山区",
    "position": {
      "lat": "22.523918",
      "lng": "113.969657"
    }
  },
  {
    "store_name": "小米之家",
    "address": "礼耕路与六和路交叉口西南40米",
    "tel": [],
    "province": "广东省",
    "city": "深圳市",
    "district": "龙岗区",
    "full_region": "深圳市 龙岗区",
    "position": {
      "lat": "22.637149",
      "lng": "114.191236"
    }
  },
  {
    "store_name": "小米之家(广东深圳福田区cocopark二期专卖店)",
    "address": "福田街道广东省深圳市福田区福华三路269号L1-029",
    "tel": "18126492659",
    "province": "广东省",
    "city": "深圳市",
    "district": "福田区",
    "full_region": "深圳市 福田区",
    "position": {
      "lat": "22.531627",
      "lng": "114.054638"
    }
  },
  {
    "store_name": "小米之家(富通广场店)",
    "address": "和平路283-289号L2层58号(龙华地铁站D口旁)",
    "tel": "0755-29560669",
    "province": "广东省",
    "city": "深圳市",
    "district": "龙华区",
    "full_region": "深圳市 龙华区",
    "position": {
      "lat": "22.651093",
      "lng": "114.022652"
    }
  },
  {
    "store_name": "小米之家(金龙华广场店)",
    "address": "龙观路3号小米之家",
    "tel": "19129987845",
    "province": "广东省",
    "city": "深圳市",
    "district": "龙华区",
    "full_region": "深圳市 龙华区",
    "position": {
      "lat": "22.661449",
      "lng": "114.016547"
    }
  },
  {
    "store_name": "小米之家",
    "address": "西乡街道龙珠社区荔景楼2栋富成路108号",
    "tel": "17761661550",
    "province": "广东省",
    "city": "深圳市",
    "district": "宝安区",
    "full_region": "深圳市 宝安区",
    "position": {
      "lat": "22.576250",
      "lng": "113.882252"
    }
  },
  {
    "store_name": "小米之家(坂田百佳华专卖店)",
    "address": "坂田街道吉华路635号百佳华购物中心一楼",
    "tel": "18818996976",
    "province": "广东省",
    "city": "深圳市",
    "district": "龙岗区",
    "full_region": "深圳市 龙岗区",
    "position": {
      "lat": "22.632746",
      "lng": "114.059552"
    }
  },
  {
    "store_name": "小米之家(龙华大润发店)",
    "address": "大润发一楼小米之家",
    "tel": "15711988886",
    "province": "广东省",
    "city": "深圳市",
    "district": "龙华区",
    "full_region": "深圳市 龙华区",
    "position": {
      "lat": "22.657316",
      "lng": "114.031713"
    }
  },
  {
    "store_name": "小米之家(广东深圳龙岗区下水径华润万家专卖店)",
    "address": "吉华街道广东省深圳市龙岗区吉华路266号",
    "tel": "18922847839",
    "province": "广东省",
    "city": "深圳市",
    "district": "龙岗区",
    "full_region": "深圳市 龙岗区",
    "position": {
      "lat": "22.617796",
      "lng": "114.110297"
    }
  },
  {
    "store_name": "小米之家(悦方广场店)",
    "address": "西丽街道留仙大道2188号悦方广场一楼小米之家",
    "tel": "0755-22672869",
    "province": "广东省",
    "city": "深圳市",
    "district": "南山区",
    "full_region": "深圳市 南山区",
    "position": {
      "lat": "22.580984",
      "lng": "113.944662"
    }
  },
  {
    "store_name": "小米之家(广东深圳龙华区百佳华专卖店)",
    "address": "人民北路4243号",
    "tel": [],
    "province": "广东省",
    "city": "深圳市",
    "district": "龙华区",
    "full_region": "深圳市 龙华区",
    "position": {
      "lat": "22.655330",
      "lng": "114.020838"
    }
  },
  {
    "store_name": "小米之家(广东省深圳市福田区宝树台购物广场专卖店)",
    "address": "燕南路49号(燕南地铁站A口步行50米)",
    "tel": [],
    "province": "广东省",
    "city": "深圳市",
    "district": "福田区",
    "full_region": "深圳市 福田区",
    "position": {
      "lat": "22.543505",
      "lng": "114.092874"
    }
  },
  {
    "store_name": "小米之家(广东深圳罗湖区东门茂业店)",
    "address": "东门街道东门社区东门中路2047茂业商厦一层F01005X商铺",
    "tel": "18806646354",
    "province": "广东省",
    "city": "深圳市",
    "district": "罗湖区",
    "full_region": "深圳市 罗湖区",
    "position": {
      "lat": "22.547197",
      "lng": "114.121136"
    }
  },
  {
    "store_name": "小米之家(深圳坂田万科广场店)",
    "address": "坂田街道杨美社区东坡路3号万致天地商业中心1栋B1-04",
    "tel": [],
    "province": "广东省",
    "city": "深圳市",
    "district": "龙岗区",
    "full_region": "深圳市 龙岗区",
    "position": {
      "lat": "22.628256",
      "lng": "114.069258"
    }
  },
  {
    "store_name": "小米之家(花园城店)",
    "address": "招商街道四海社区南海大道1090号蛇口花园城中心123",
    "tel": "18002561772",
    "province": "广东省",
    "city": "深圳市",
    "district": "南山区",
    "full_region": "深圳市 南山区",
    "position": {
      "lat": "22.501448",
      "lng": "113.923165"
    }
  },
  {
    "store_name": "小米之家(常兴天虹店)",
    "address": "南头街道桃园路与常兴路交会处常兴天虹商场L1-1051号铺小米之家",
    "tel": "0755-22672086",
    "province": "广东省",
    "city": "深圳市",
    "district": "南山区",
    "full_region": "深圳市 南山区",
    "position": {
      "lat": "22.532860",
      "lng": "113.922246"
    }
  },
  {
    "store_name": "小米之家深圳湾科技园店",
    "address": "粤海街道广东省深圳市南山区高新南环路",
    "tel": "0755-86565657",
    "province": "广东省",
    "city": "深圳市",
    "district": "南山区",
    "full_region": "深圳市 南山区",
    "position": {
      "lat": "22.530498",
      "lng": "113.953286"
    }
  },
  {
    "store_name": "小米之家(创业天虹购物中心店)",
    "address": "新安街道深圳市宝安区创业一路1018号",
    "tel": [],
    "province": "广东省",
    "city": "深圳市",
    "district": "宝安区",
    "full_region": "深圳市 宝安区",
    "position": {
      "lat": "22.559819",
      "lng": "113.893928"
    }
  },
  {
    "store_name": "小米之家(小米之家广东深圳龙华区星河COCOCITY店)",
    "address": "民治街道广东省深圳市龙华区民治街道龙华大道龙华星河COCOCity商场一楼L1S-020号铺",
    "tel": "0755-23177906;17640391991",
    "province": "广东省",
    "city": "深圳市",
    "district": "龙华区",
    "full_region": "深圳市 龙华区",
    "position": {
      "lat": "22.603681",
      "lng": "114.045566"
    }
  },
  {
    "store_name": "小米之家(广东深圳南山区前海卓悦INTOWN购物中心专卖店)",
    "address": "金融东街3号前海卓悦INTOWN B1-32商铺",
    "tel": [],
    "province": "广东省",
    "city": "深圳市",
    "district": "南山区",
    "full_region": "深圳市 南山区",
    "position": {
      "lat": "22.529310",
      "lng": "113.900194"
    }
  },
  {
    "store_name": "小米之家(大浪纷享城店)",
    "address": "大浪街道同胜社区同富裕工业园第11.12栋(大浪商业中心)106",
    "tel": "0755-28018996",
    "province": "广东省",
    "city": "深圳市",
    "district": "龙华区",
    "full_region": "深圳市 龙华区",
    "position": {
      "lat": "22.675306",
      "lng": "113.993917"
    }
  },
  {
    "store_name": "小米之家(广东深圳龙岗区凯旋荟专卖店)",
    "address": "布吉街道广东省深圳市龙岗区布吉街道金利路48号",
    "tel": "19926494081",
    "province": "广东省",
    "city": "深圳市",
    "district": "龙岗区",
    "full_region": "深圳市 龙岗区",
    "position": {
      "lat": "22.606326",
      "lng": "114.117248"
    }
  },
  {
    "store_name": "小米之家-全屋智能 (深圳福田中心书城店)",
    "address": "莲花街道福中社区福一路2014号深圳书城中心城首层北区N117号铺",
    "tel": "0755-23917624",
    "province": "广东省",
    "city": "深圳市",
    "district": "福田区",
    "full_region": "深圳市 福田区",
    "position": {
      "lat": "22.547634",
      "lng": "114.059179"
    }
  },
  {
    "store_name": "小米之家(深圳喜荟城专卖店)",
    "address": "太宁路8号喜荟城购物中心一层140号商铺",
    "tel": "0755-22746269",
    "province": "广东省",
    "city": "深圳市",
    "district": "罗湖区",
    "full_region": "深圳市 罗湖区",
    "position": {
      "lat": "22.567540",
      "lng": "114.141037"
    }
  },
  {
    "store_name": "小米之家(广东深圳龙华区壹方城专卖店)",
    "address": "龙华街道壹方天地C区B1层B1-033号商铺",
    "tel": "0755-21011557",
    "province": "广东省",
    "city": "深圳市",
    "district": "龙华区",
    "full_region": "深圳市 龙华区",
    "position": {
      "lat": "22.643301",
      "lng": "114.031175"
    }
  },
  {
    "store_name": "小米之家(广东深圳宝安区天虹购物中心店)",
    "address": "深圳市宝安区西乡大道1019号",
    "tel": "0755-27801516",
    "province": "广东省",
    "city": "深圳市",
    "district": "宝安区",
    "full_region": "深圳市 宝安区",
    "position": {
      "lat": "22.574941",
      "lng": "113.864441"
    }
  },
  {
    "store_name": "小米之家(丰盛大地店)",
    "address": "福城街道广东省深圳市龙华区福水路3号丰盛懿园139",
    "tel": [],
    "province": "广东省",
    "city": "深圳市",
    "district": "龙华区",
    "full_region": "深圳市 龙华区",
    "position": {
      "lat": "22.719733",
      "lng": "114.032300"
    }
  },
  {
    "store_name": "小米之家(塘朗城专卖店)",
    "address": "留仙大道3333号塘朗城3楼小米之家",
    "tel": "0755-22670070",
    "province": "广东省",
    "city": "深圳市",
    "district": "南山区",
    "full_region": "深圳市 南山区",
    "position": {
      "lat": "22.589340",
      "lng": "114.000272"
    }
  },
  {
    "store_name": "小米之家(广东深圳南山区宝能all city专卖店)",
    "address": "深圳湾社区宝能allcity北区一层NL114商铺",
    "tel": "0755-36889291",
    "province": "广东省",
    "city": "深圳市",
    "district": "南山区",
    "full_region": "深圳市 南山区",
    "position": {
      "lat": "22.500614",
      "lng": "113.939740"
    }
  },
  {
    "store_name": "小米之家(清水河四路店)",
    "address": "清水河四路与清水河一路交叉口南80米",
    "tel": [],
    "province": "广东省",
    "city": "深圳市",
    "district": "罗湖区",
    "full_region": "深圳市 罗湖区",
    "position": {
      "lat": "22.578195",
      "lng": "114.110894"
    }
  },
  {
    "store_name": "小米之家(广东深圳龙岗区万达广场专卖店)",
    "address": "平湖万达一楼1056小米之家专卖店",
    "tel": "13684993863",
    "province": "广东省",
    "city": "深圳市",
    "district": "龙岗区",
    "full_region": "深圳市 龙岗区",
    "position": {
      "lat": "22.673781",
      "lng": "114.130905"
    }
  },
  {
    "store_name": "小米之家(龙华星潮泰店)",
    "address": "龙华街道东环一路374星潮泰未来城1楼",
    "tel": "17620322332",
    "province": "广东省",
    "city": "深圳市",
    "district": "龙华区",
    "full_region": "深圳市 龙华区",
    "position": {
      "lat": "22.652231",
      "lng": "114.030588"
    }
  },
  {
    "store_name": "小米之家(江南时代广场店)",
    "address": "坂田街道坂雪岗大道江南时代广场G楼小米之家",
    "tel": "18776432927",
    "province": "广东省",
    "city": "深圳市",
    "district": "龙岗区",
    "full_region": "深圳市 龙岗区",
    "position": {
      "lat": "22.656068",
      "lng": "114.069865"
    }
  },
  {
    "store_name": "小米之家(壹海城店)",
    "address": "海山街道壹海城onemall商场一楼小米之家",
    "tel": "0755-22320372;15679571917",
    "province": "广东省",
    "city": "深圳市",
    "district": "盐田区",
    "full_region": "深圳市 盐田区",
    "position": {
      "lat": "22.552258",
      "lng": "114.238445"
    }
  },
  {
    "store_name": "小米之家(宝石南路店)",
    "address": "石岩街道宝石南路132号146-1",
    "tel": "0755-23503784",
    "province": "广东省",
    "city": "深圳市",
    "district": "宝安区",
    "full_region": "深圳市 宝安区",
    "position": {
      "lat": "22.677067",
      "lng": "113.932279"
    }
  },
  {
    "store_name": "小米之家(宏发大世界店)",
    "address": "石岩街道浪心社区宝石南路95号宏发大世界二单元110石岩岁宝L1小米之家",
    "tel": "0755-23599714",
    "province": "广东省",
    "city": "深圳市",
    "district": "宝安区",
    "full_region": "深圳市 宝安区",
    "position": {
      "lat": "22.675164",
      "lng": "113.930312"
    }
  },
  {
    "store_name": "小米之家民治大润发店",
    "address": "民治街道民治大道328号大润发超市入口旁L1-04商铺小米之家",
    "tel": "0755-21035909;18138253839",
    "province": "广东省",
    "city": "深圳市",
    "district": "龙华区",
    "full_region": "深圳市 龙华区",
    "position": {
      "lat": "22.622744",
      "lng": "114.039797"
    }
  },
  {
    "store_name": "小米之家(海岸城店)",
    "address": "粤海街道文心五路33号海岸城购物中心2层L206",
    "tel": "15217276878",
    "province": "广东省",
    "city": "深圳市",
    "district": "南山区",
    "full_region": "深圳市 南山区",
    "position": {
      "lat": "22.516861",
      "lng": "113.935578"
    }
  },
  {
    "store_name": "小米之家(福城天虹店)",
    "address": "广东省观澜大道117号观澜福城天虹购物中心L1层F137商铺",
    "tel": "18923860320",
    "province": "广东省",
    "city": "深圳市",
    "district": "龙华区",
    "full_region": "深圳市 龙华区",
    "position": {
      "lat": "22.700533",
      "lng": "114.040495"
    }
  },
  {
    "store_name": "小米之家(南山区高新安荟邻专卖店)",
    "address": "高安安荟邻1层L122号铺",
    "tel": "0755-22671989;17301904515",
    "province": "广东省",
    "city": "深圳市",
    "district": "南山区",
    "full_region": "深圳市 南山区",
    "position": {
      "lat": "22.533146",
      "lng": "113.951671"
    }
  },
  {
    "store_name": "小米之家(深圳麟恒中心广场专卖店)",
    "address": "G205(龙岗大道)(六约地铁站B2口步行480米)",
    "tel": "0755-28708664",
    "province": "广东省",
    "city": "深圳市",
    "district": "龙岗区",
    "full_region": "深圳市 龙岗区",
    "position": {
      "lat": "22.636450",
      "lng": "114.184518"
    }
  },
  {
    "store_name": "小米之家(宝安万达广场店)",
    "address": "新安街道文雅社区宝民一路上川路口福城前海新纪元嘉州商务中心2栋1楼1005铺位",
    "tel": "0755-23053544;13242993783;13620299994",
    "province": "广东省",
    "city": "深圳市",
    "district": "宝安区",
    "full_region": "深圳市 宝安区",
    "position": {
      "lat": "22.572605",
      "lng": "113.890229"
    }
  },
  {
    "store_name": "小米之家(深圳后浪新天地专卖店)",
    "address": "大浪商业中心后浪新天地第8栋8101号小米之家",
    "tel": "0755-23745364",
    "province": "广东省",
    "city": "深圳市",
    "district": "龙华区",
    "full_region": "深圳市 龙华区",
    "position": {
      "lat": "22.678106",
      "lng": "113.994365"
    }
  },
  {
    "store_name": "小米之家(中洲购物中心店)",
    "address": "新安街道中洲购物中心L1层小米之家",
    "tel": "0755-23226120;18320908269",
    "province": "广东省",
    "city": "深圳市",
    "district": "宝安区",
    "full_region": "深圳市 宝安区",
    "position": {
      "lat": "22.571767",
      "lng": "113.906606"
    }
  },
  {
    "store_name": "小米之家(笋岗万象食家店)",
    "address": "梅园路51号笋岗万象食家3楼L323号小米之家",
    "tel": "0755-82499952",
    "province": "广东省",
    "city": "深圳市",
    "district": "罗湖区",
    "full_region": "深圳市 罗湖区",
    "position": {
      "lat": "22.561440",
      "lng": "114.110372"
    }
  },
  {
    "store_name": "小米之家(大芬沃尔玛)",
    "address": "布吉街道大芬村龙吉大厦沃尔玛2楼小米之家",
    "tel": "18929399829",
    "province": "广东省",
    "city": "深圳市",
    "district": "龙岗区",
    "full_region": "深圳市 龙岗区",
    "position": {
      "lat": "22.611877",
      "lng": "114.137477"
    }
  },
  {
    "store_name": "小米之家(坂田天虹商场店)",
    "address": "吉华路696号天虹商场F1层",
    "tel": "13723423786",
    "province": "广东省",
    "city": "深圳市",
    "district": "龙岗区",
    "full_region": "深圳市 龙岗区",
    "position": {
      "lat": "22.634384",
      "lng": "114.059577"
    }
  },
  {
    "store_name": "小米之家(福城天虹店)",
    "address": "观澜大道117号B1层B0089商铺",
    "tel": "15907551686",
    "province": "广东省",
    "city": "深圳市",
    "district": "龙华区",
    "full_region": "深圳市 龙华区",
    "position": {
      "lat": "22.700334",
      "lng": "114.041039"
    }
  },
  {
    "store_name": "小米之家(罗湖区KK MALL专卖店)",
    "address": "蔡屋围京基一百大厦A座裙楼四楼01-401E",
    "tel": "18576666506",
    "province": "广东省",
    "city": "深圳市",
    "district": "罗湖区",
    "full_region": "深圳市 罗湖区",
    "position": {
      "lat": "22.543824",
      "lng": "114.106786"
    }
  },
  {
    "store_name": "小米之家(宝安区前进天虹商场店)",
    "address": "前进一路329号前进天虹商场一楼内(上川地铁站G口旁)",
    "tel": "19076191260",
    "province": "广东省",
    "city": "深圳市",
    "district": "宝安区",
    "full_region": "深圳市 宝安区",
    "position": {
      "lat": "22.578629",
      "lng": "113.893823"
    }
  },
  {
    "store_name": "小米之家(深圳布吉万象汇汽车体验店)",
    "address": "布吉街道罗岗社区信义荔景御园E区1栋L114-L116",
    "tel": "15078868404",
    "province": "广东省",
    "city": "深圳市",
    "district": "龙岗区",
    "full_region": "深圳市 龙岗区",
    "position": {
      "lat": "22.593773",
      "lng": "114.131105"
    }
  },
  {
    "store_name": "小米之家(广东深圳福田区绿景佐阾新邑购物中心专卖店)",
    "address": "沙头街道广东省深圳市福田区新洲二街56号绿景佐阾新邑购物中心1F-102A号",
    "tel": "0755-23480825",
    "province": "广东省",
    "city": "深圳市",
    "district": "福田区",
    "full_region": "深圳市 福田区",
    "position": {
      "lat": "22.521434",
      "lng": "114.047769"
    }
  },
  {
    "store_name": "小米之家(上河坊·港澳湾店)",
    "address": "金龙路7号上河坊购物乐园F1层",
    "tel": [],
    "province": "广东省",
    "city": "深圳市",
    "district": "龙华区",
    "full_region": "深圳市 龙华区",
    "position": {
      "lat": "22.598488",
      "lng": "114.046576"
    }
  },
  {
    "store_name": "小米之家(后浪新天地店)",
    "address": "华兴路与华天路交叉口东南60米",
    "tel": [],
    "province": "广东省",
    "city": "深圳市",
    "district": "龙华区",
    "full_region": "深圳市 龙华区",
    "position": {
      "lat": "22.678312",
      "lng": "113.994243"
    }
  },
  {
    "store_name": "小米之家左阾红树林店",
    "address": "详细沙头街道沙嘴社区沙嘴路8号红树华府L1层L114B",
    "tel": "13824364713",
    "province": "广东省",
    "city": "深圳市",
    "district": "福田区",
    "full_region": "深圳市 福田区",
    "position": {
      "lat": "22.519910",
      "lng": "114.037525"
    }
  },
  {
    "store_name": "小米之家(广东深圳南山区半里花海生活广场专卖店)",
    "address": "西丽街道茶光路半里花海生活广场L1035A",
    "tel": "0755-86567974",
    "province": "广东省",
    "city": "深圳市",
    "district": "南山区",
    "full_region": "深圳市 南山区",
    "position": {
      "lat": "22.567639",
      "lng": "113.950792"
    }
  },
  {
    "store_name": "小米之家(广东深圳宝安区时代城专卖店)",
    "address": "海城路201号时代城一楼F128号铺小米之家",
    "tel": "0755-23595986",
    "province": "广东省",
    "city": "深圳市",
    "district": "宝安区",
    "full_region": "深圳市 宝安区",
    "position": {
      "lat": "22.566635",
      "lng": "113.868058"
    }
  },
  {
    "store_name": "小米之家(广东深圳盐田区电信厅专卖店)",
    "address": "盐田街道广东省深圳市盐田区盐田路210号",
    "tel": "13662650633",
    "province": "广东省",
    "city": "深圳市",
    "district": "盐田区",
    "full_region": "深圳市 盐田区",
    "position": {
      "lat": "22.590739",
      "lng": "114.257721"
    }
  },
  {
    "store_name": "小米之家",
    "address": "沃尔玛",
    "tel": [],
    "province": "广东省",
    "city": "深圳市",
    "district": "龙岗区",
    "full_region": "深圳市 龙岗区",
    "position": {
      "lat": "22.724851",
      "lng": "114.248538"
    }
  },
  {
    "store_name": "小米之家(深圳罗湖区莲塘岁宝店)",
    "address": "莲塘街道岁宝邻里一楼小米之家",
    "tel": "0755-22325519",
    "province": "广东省",
    "city": "深圳市",
    "district": "罗湖区",
    "full_region": "深圳市 罗湖区",
    "position": {
      "lat": "22.561820",
      "lng": "114.171409"
    }
  },
  {
    "store_name": "小米之家(龙华电信大厦店)",
    "address": "人民路4123号电信大厦1楼",
    "tel": "0755-23739579;18948780272",
    "province": "广东省",
    "city": "深圳市",
    "district": "龙华区",
    "full_region": "深圳市 龙华区",
    "position": {
      "lat": "22.649703",
      "lng": "114.025812"
    }
  },
  {
    "store_name": "小米之家(布吉老街店)",
    "address": "布吉街道布吉圩社区布吉路102-1号",
    "tel": "0755-28749661",
    "province": "广东省",
    "city": "深圳市",
    "district": "龙岗区",
    "full_region": "深圳市 龙岗区",
    "position": {
      "lat": "22.600219",
      "lng": "114.117202"
    }
  },
  {
    "store_name": "小米之家(龙珠岁宝专卖店)",
    "address": "桃源街道龙珠岁宝百货一楼",
    "tel": "13828881029",
    "province": "广东省",
    "city": "深圳市",
    "district": "南山区",
    "full_region": "深圳市 南山区",
    "position": {
      "lat": "22.557668",
      "lng": "113.984296"
    }
  },
  {
    "store_name": "小米之家(深圳前海壹方城汽车体验店)",
    "address": "新安街道新湖路99号壹方中心B1层003号小米之家",
    "tel": "0755-27901960",
    "province": "广东省",
    "city": "深圳市",
    "district": "宝安区",
    "full_region": "深圳市 宝安区",
    "position": {
      "lat": "22.553573",
      "lng": "113.887087"
    }
  },
  {
    "store_name": "小米之家(观澜天虹专卖店)",
    "address": "观湖街道观湖街道润城社区龙华大道6153号天虹商场一楼1201D",
    "tel": "18923819887",
    "province": "广东省",
    "city": "深圳市",
    "district": "龙华区",
    "full_region": "深圳市 龙华区",
    "position": {
      "lat": "22.694948",
      "lng": "114.049173"
    }
  },
  {
    "store_name": "小米之家(立桥城购物中心店)",
    "address": "东滨路与月亮湾大道交叉路口往南约50米立桥城购物中心L1-02",
    "tel": "0755-22678689",
    "province": "广东省",
    "city": "深圳市",
    "district": "南山区",
    "full_region": "深圳市 南山区",
    "position": {
      "lat": "22.513479",
      "lng": "113.906003"
    }
  },
  {
    "store_name": "小米之家云城万科里店",
    "address": "西丽街道打石二路与石鼓路交汇处云城万科里购物中心L1-109号",
    "tel": "17727816535",
    "province": "广东省",
    "city": "深圳市",
    "district": "南山区",
    "full_region": "深圳市 南山区",
    "position": {
      "lat": "22.574831",
      "lng": "113.943541"
    }
  },
  {
    "store_name": "小米之家(盐田区瀚海汇专卖店)",
    "address": "沙盐路3063荣津·瀚海汇F1层",
    "tel": "13928471250",
    "province": "广东省",
    "city": "深圳市",
    "district": "盐田区",
    "full_region": "深圳市 盐田区",
    "position": {
      "lat": "22.551418",
      "lng": "114.231946"
    }
  },
  {
    "store_name": "小米之家(深圳海格堡购物中心专卖店)",
    "address": "新安街道海旺社区84区裕安一路3016号尚都花园1栋海格堡一层L103",
    "tel": "18779108009",
    "province": "广东省",
    "city": "深圳市",
    "district": "宝安区",
    "full_region": "深圳市 宝安区",
    "position": {
      "lat": "22.557885",
      "lng": "113.885278"
    }
  },
  {
    "store_name": "小米之家(天虹横岗店)",
    "address": "龙岗大道3997号天虹商场(横岗店)L1层",
    "tel": [],
    "province": "广东省",
    "city": "深圳市",
    "district": "龙岗区",
    "full_region": "深圳市 龙岗区",
    "position": {
      "lat": "22.642134",
      "lng": "114.195869"
    }
  },
  {
    "store_name": "小米之家(光明万达店)",
    "address": "万达购物广场1楼小米之家1006号",
    "tel": "0755-21061696",
    "province": "广东省",
    "city": "深圳市",
    "district": "光明区",
    "full_region": "深圳市 光明区",
    "position": {
      "lat": "22.747438",
      "lng": "113.931979"
    }
  },
  {
    "store_name": "小米之家(中国电信观兰营业厅)",
    "address": "观澜大道178号观澜电信厅小米之家专卖店",
    "tel": "19129919931",
    "province": "广东省",
    "city": "深圳市",
    "district": "龙华区",
    "full_region": "深圳市 龙华区",
    "position": {
      "lat": "22.705885",
      "lng": "114.043976"
    }
  },
  {
    "store_name": "小米之家(坂田天安云谷店)",
    "address": "坂田街道天安云谷产业园一期1栋A座B05-2",
    "tel": "13392802078",
    "province": "广东省",
    "city": "深圳市",
    "district": "龙岗区",
    "full_region": "深圳市 龙岗区",
    "position": {
      "lat": "22.659064",
      "lng": "114.067699"
    }
  },
  {
    "store_name": "小米之家(广东深圳龙华区保利天街专卖店)",
    "address": "龙观大道辅路与玉翠三街交叉口东南60米",
    "tel": "18682252809",
    "province": "广东省",
    "city": "深圳市",
    "district": "龙华区",
    "full_region": "深圳市 龙华区",
    "position": {
      "lat": "22.669779",
      "lng": "114.032174"
    }
  },
  {
    "store_name": "小米之家(龙华星河iCO店)",
    "address": "星河iCO一楼",
    "tel": "0755-27619707",
    "province": "广东省",
    "city": "深圳市",
    "district": "龙华区",
    "full_region": "深圳市 龙华区",
    "position": {
      "lat": "22.656657",
      "lng": "114.037777"
    }
  },
  {
    "store_name": "小米之家(凯德公园一号广场店)",
    "address": "南山街道登良社区南油创业路3023号凯德公园一号广场B座一层L15-17铺",
    "tel": "0755-83281166;19168840104",
    "province": "广东省",
    "city": "深圳市",
    "district": "南山区",
    "full_region": "深圳市 南山区",
    "position": {
      "lat": "22.515203",
      "lng": "113.925506"
    }
  },
  {
    "store_name": "小米之家(绿景佐阾香颂购物中心店)",
    "address": "民治街道绿景佐阾香颂购物中心一楼N-L126",
    "tel": "0755-23766189",
    "province": "广东省",
    "city": "深圳市",
    "district": "龙华区",
    "full_region": "深圳市 龙华区",
    "position": {
      "lat": "22.630499",
      "lng": "114.036739"
    }
  },
  {
    "store_name": "小米之家(福城天虹店)",
    "address": "观澜大道117号L1层F137商铺",
    "tel": "15907551686;18923860320",
    "province": "广东省",
    "city": "深圳市",
    "district": "龙华区",
    "full_region": "深圳市 龙华区",
    "position": {
      "lat": "22.700368",
      "lng": "114.041424"
    }
  },
  {
    "store_name": "小米之家",
    "address": "官塘横街与龙飞大道交叉口西60米",
    "tel": [],
    "province": "广东省",
    "city": "深圳市",
    "district": "龙岗区",
    "full_region": "深圳市 龙岗区",
    "position": {
      "lat": "22.711970",
      "lng": "114.212239"
    }
  },
  {
    "store_name": "小米之家(广东深圳宝安区大仟里店)",
    "address": "新湖路与海城路交汇处宝安大仟里B1-B108",
    "tel": "0755-27901956",
    "province": "广东省",
    "city": "深圳市",
    "district": "宝安区",
    "full_region": "深圳市 宝安区",
    "position": {
      "lat": "22.569288",
      "lng": "113.871793"
    }
  },
  {
    "store_name": "小米之家(广东深圳宝安区石岩汇邦中心专卖店)",
    "address": "石岩街道汇邦中心C区1026号小米之家",
    "tel": "13750403645",
    "province": "广东省",
    "city": "深圳市",
    "district": "宝安区",
    "full_region": "深圳市 宝安区",
    "position": {
      "lat": "22.691041",
      "lng": "113.971823"
    }
  },
  {
    "store_name": "小米之家(融湖广场店)",
    "address": "平吉大道408号融湖广场L1层L1-10",
    "tel": [],
    "province": "广东省",
    "city": "深圳市",
    "district": "龙岗区",
    "full_region": "深圳市 龙岗区",
    "position": {
      "lat": "22.693152",
      "lng": "114.122095"
    }
  },
  {
    "store_name": "小米之家(深圳海雅缤纷城汽车体验店)",
    "address": "新安街道建安一路99号一楼",
    "tel": "0755-23354669",
    "province": "广东省",
    "city": "深圳市",
    "district": "宝安区",
    "full_region": "深圳市 宝安区",
    "position": {
      "lat": "22.559754",
      "lng": "113.906369"
    }
  },
  {
    "store_name": "小米之家(前海壹方汇店)",
    "address": "听海大道5059号壹方汇L1层L1-026、027",
    "tel": [],
    "province": "广东省",
    "city": "深圳市",
    "district": "南山区",
    "full_region": "深圳市 南山区",
    "position": {
      "lat": "22.528773",
      "lng": "113.896981"
    }
  },
  {
    "store_name": "小米之家(灵芝地铁站店)",
    "address": "新安街道前进一路211号灵芝地铁站A1出口泰华商业城一楼12号商铺小米之家",
    "tel": "19076191062",
    "province": "广东省",
    "city": "深圳市",
    "district": "宝安区",
    "full_region": "深圳市 宝安区",
    "position": {
      "lat": "22.568378",
      "lng": "113.903888"
    }
  },
  {
    "store_name": "小米之家(平湖凤凰城店)",
    "address": "平湖街道凤凰大道132号凤凰商业广场一楼",
    "tel": "13798343016",
    "province": "广东省",
    "city": "深圳市",
    "district": "龙岗区",
    "full_region": "深圳市 龙岗区",
    "position": {
      "lat": "22.696445",
      "lng": "114.143234"
    }
  },
  {
    "store_name": "小米之家(龙观天虹店)",
    "address": "龙华街道龙园社区花园新村16号龙观东路449-1铺小米之家",
    "tel": "18926516896",
    "province": "广东省",
    "city": "深圳市",
    "district": "龙华区",
    "full_region": "深圳市 龙华区",
    "position": {
      "lat": "22.662424",
      "lng": "114.019440"
    }
  },
  {
    "store_name": "小米之家(壹方天地B区店)",
    "address": "鸿尚路壹方天地B区2楼小米之家",
    "tel": "0755-21059973",
    "province": "广东省",
    "city": "深圳市",
    "district": "龙华区",
    "full_region": "深圳市 龙华区",
    "position": {
      "lat": "22.647235",
      "lng": "114.029141"
    }
  },
  {
    "store_name": "小米之家(龙华益田假日天地店)",
    "address": "和平路128号龙华益田假日天地F1层",
    "tel": "18923893235",
    "province": "广东省",
    "city": "深圳市",
    "district": "龙华区",
    "full_region": "深圳市 龙华区",
    "position": {
      "lat": "22.662244",
      "lng": "114.036451"
    }
  },
  {
    "store_name": "小米之家(广东深圳南山区海上世界汇港专卖店)",
    "address": "海上世界汇港购物中心二期L1-08号(海上世界地铁站C出口)",
    "tel": [],
    "province": "广东省",
    "city": "深圳市",
    "district": "南山区",
    "full_region": "深圳市 南山区",
    "position": {
      "lat": "22.485065",
      "lng": "113.914281"
    }
  },
  {
    "store_name": "小米之家(盐田区广富百货专卖店)",
    "address": "海山街道田东社区海山路28号海山道1号Aa栋124",
    "tel": "19068089979",
    "province": "广东省",
    "city": "深圳市",
    "district": "盐田区",
    "full_region": "深圳市 盐田区",
    "position": {
      "lat": "22.557939",
      "lng": "114.238070"
    }
  },
  {
    "store_name": "小米之家(华润大运天地店)",
    "address": "龙城街道黄阁坑社区大运天地购物中心南区1栋LG127小米之家",
    "tel": "18033432822",
    "province": "广东省",
    "city": "深圳市",
    "district": "龙岗区",
    "full_region": "深圳市 龙岗区",
    "position": {
      "lat": "22.694761",
      "lng": "114.220150"
    }
  },
  {
    "store_name": "小米之家(横岗新世界广场店)",
    "address": "龙岗大道5011号横岗新世界广场西区1A04",
    "tel": "0755-28740572",
    "province": "广东省",
    "city": "深圳市",
    "district": "龙岗区",
    "full_region": "深圳市 龙岗区",
    "position": {
      "lat": "22.647637",
      "lng": "114.206784"
    }
  },
  {
    "store_name": "小米之家(广东深圳宝安区石岩星城购物中心店)",
    "address": "宝石东路209号星城购物中心F1-L115B",
    "tel": "0755-85283570",
    "province": "广东省",
    "city": "深圳市",
    "district": "宝安区",
    "full_region": "深圳市 宝安区",
    "position": {
      "lat": "22.679716",
      "lng": "113.947998"
    }
  },
  {
    "store_name": "小米之家广东深圳罗湖区金光华广场店",
    "address": "人民南路2028号金光华广场负二楼012A商铺",
    "tel": "0755-82234811",
    "province": "广东省",
    "city": "深圳市",
    "district": "罗湖区",
    "full_region": "深圳市 罗湖区",
    "position": {
      "lat": "22.539498",
      "lng": "114.119817"
    }
  },
  {
    "store_name": "小米之家(深圳万悦城商业广场专卖店)",
    "address": "观光路1399号万悦城L1-02铺",
    "tel": "17722437087",
    "province": "广东省",
    "city": "深圳市",
    "district": "龙华区",
    "full_region": "深圳市 龙华区",
    "position": {
      "lat": "22.732001",
      "lng": "114.012969"
    }
  },
  {
    "store_name": "小米之家(深圳北站缤果空间专卖店)",
    "address": "民塘路深圳北站东广场F1-F2缤果空间F1层1A-20、1A-21",
    "tel": "0755-29300167",
    "province": "广东省",
    "city": "深圳市",
    "district": "龙华区",
    "full_region": "深圳市 龙华区",
    "position": {
      "lat": "22.611495",
      "lng": "114.032191"
    }
  },
  {
    "store_name": "小米之家(广东深圳南山区君尚3019专卖店)",
    "address": "中心路3019号",
    "tel": [],
    "province": "广东省",
    "city": "深圳市",
    "district": "南山区",
    "full_region": "深圳市 南山区",
    "position": {
      "lat": "22.506579",
      "lng": "113.940778"
    }
  },
  {
    "store_name": "小米之家(观澜湖店)",
    "address": "观澜街道广培社区高尔夫大道8号观澜湖新城SL104",
    "tel": "15013584183;15889720035",
    "province": "广东省",
    "city": "深圳市",
    "district": "龙华区",
    "full_region": "深圳市 龙华区",
    "position": {
      "lat": "22.722674",
      "lng": "114.076657"
    }
  },
  {
    "store_name": "小米之家(得丰·榕湾汇商业广场店)",
    "address": "宝源路24号得丰·榕湾汇商业广场F1层",
    "tel": "13476239790",
    "province": "广东省",
    "city": "深圳市",
    "district": "宝安区",
    "full_region": "深圳市 宝安区",
    "position": {
      "lat": "22.574883",
      "lng": "113.857434"
    }
  },
  {
    "store_name": "小米之家(深圳龙华江南百货专卖店)",
    "address": "龙华街道向联社区大浪南路338号129",
    "tel": [],
    "province": "广东省",
    "city": "深圳市",
    "district": "龙华区",
    "full_region": "深圳市 龙华区",
    "position": {
      "lat": "22.672163",
      "lng": "114.014405"
    }
  },
  {
    "store_name": "小米之家(广东深圳南山区赛格广场专卖店)",
    "address": "南头街道赛格电子市场(时代骄子大厦店)外侧小米之家",
    "tel": "18928495678",
    "province": "广东省",
    "city": "深圳市",
    "district": "南山区",
    "full_region": "深圳市 南山区",
    "position": {
      "lat": "22.528299",
      "lng": "113.925074"
    }
  },
  {
    "store_name": "小米之家(广东深圳宝安区欢乐港湾东岸专卖店)",
    "address": "欢乐港湾东岸L1-061号",
    "tel": "15986782253",
    "province": "广东省",
    "city": "深圳市",
    "district": "宝安区",
    "full_region": "深圳市 宝安区",
    "position": {
      "lat": "22.543549",
      "lng": "113.885931"
    }
  },
  {
    "store_name": "小米之家(龙岗区锦荟park专卖店)",
    "address": "横岗街道六约南社区龙岗大道(横岗段)1018号地铁锦上花园1栋L 232",
    "tel": "18126447757",
    "province": "广东省",
    "city": "深圳市",
    "district": "龙岗区",
    "full_region": "深圳市 龙岗区",
    "position": {
      "lat": "22.633480",
      "lng": "114.181272"
    }
  },
  {
    "store_name": "小米之家创维创新谷专卖店",
    "address": "创维创新谷B座L166",
    "tel": [],
    "province": "广东省",
    "city": "深圳市",
    "district": "宝安区",
    "full_region": "深圳市 宝安区",
    "position": {
      "lat": "22.641775",
      "lng": "113.923775"
    }
  },
  {
    "store_name": "小米之家广东深圳宝安区中洲购物中心专卖店",
    "address": "新安街道大浪社区创业二路89号中洲购物中心L115铺小米之家",
    "tel": "0755-23226120",
    "province": "广东省",
    "city": "深圳市",
    "district": "宝安区",
    "full_region": "深圳市 宝安区",
    "position": {
      "lat": "22.571995",
      "lng": "113.906862"
    }
  },
  {
    "store_name": "小米之家(广东深圳龙华区观澜兴万达专卖店)",
    "address": "观澜街道广东省深圳市龙华区兴万达广场小米之家",
    "tel": [],
    "province": "广东省",
    "city": "深圳市",
    "district": "龙华区",
    "full_region": "深圳市 龙华区",
    "position": {
      "lat": "22.718713",
      "lng": "114.058446"
    }
  },
  {
    "store_name": "小米之家(深圳龙岗平湖天虹专卖店)",
    "address": "水门路与富安大道交叉口北100米",
    "tel": [],
    "province": "广东省",
    "city": "深圳市",
    "district": "龙岗区",
    "full_region": "深圳市 龙岗区",
    "position": {
      "lat": "22.682140",
      "lng": "114.125001"
    }
  },
  {
    "store_name": "小米之家南山区睿印里专卖店",
    "address": "沙河街道高发社区深云路(睿印里RaiL INLI店)一楼小米之家",
    "tel": [],
    "province": "广东省",
    "city": "深圳市",
    "district": "南山区",
    "full_region": "深圳市 南山区",
    "position": {
      "lat": "22.552209",
      "lng": "113.990344"
    }
  },
  {
    "store_name": "小米之家(星悦天地专卖店)",
    "address": "南湾街道丹竹头社区龙岗大道布吉段3036号东部英郡假日广场1栋118",
    "tel": "19025272692;19068081359",
    "province": "广东省",
    "city": "深圳市",
    "district": "龙岗区",
    "full_region": "深圳市 龙岗区",
    "position": {
      "lat": "22.619015",
      "lng": "114.149892"
    }
  },
  {
    "store_name": "小米之家(航城里店)",
    "address": "航城街道三围社区航城大道航城里购物中心L1-026铺小米之家",
    "tel": "18129541707",
    "province": "广东省",
    "city": "深圳市",
    "district": "宝安区",
    "full_region": "深圳市 宝安区",
    "position": {
      "lat": "22.606866",
      "lng": "113.849674"
    }
  },
  {
    "store_name": "小米之家(后海kaledo)",
    "address": "文心六路4号保利文化广场乐福里B1-09b",
    "tel": "17666102624",
    "province": "广东省",
    "city": "深圳市",
    "district": "南山区",
    "full_region": "深圳市 南山区",
    "position": {
      "lat": "22.517051",
      "lng": "113.938153"
    }
  },
  {
    "store_name": "小米之家(坂田华创里店)",
    "address": "坂田街道岗头社区稼先路1998号华创云轩1S18L1-19/20",
    "tel": "13312942355",
    "province": "广东省",
    "city": "深圳市",
    "district": "龙岗区",
    "full_region": "深圳市 龙岗区",
    "position": {
      "lat": "22.651575",
      "lng": "114.065848"
    }
  },
  {
    "store_name": "小米汽车深业上城体验中心",
    "address": "华富街道莲花一村深业上城商业综合楼232",
    "tel": "13392152767",
    "province": "广东省",
    "city": "深圳市",
    "district": "福田区",
    "full_region": "深圳市 福田区",
    "position": {
      "lat": "22.556703",
      "lng": "114.069146"
    }
  },
  {
    "store_name": "小米之家宝安西乡新湖店",
    "address": "西乡地铁站A口步行380米",
    "tel": "13119571006",
    "province": "广东省",
    "city": "深圳市",
    "district": "宝安区",
    "full_region": "深圳市 宝安区",
    "position": {
      "lat": "22.572980",
      "lng": "113.865358"
    }
  },
  {
    "store_name": "小米之家(龙城万科里店)",
    "address": "龙岗大道3999号龙城万科里L1-30铺",
    "tel": "0755-89588905;13531147714",
    "province": "广东省",
    "city": "深圳市",
    "district": "龙岗区",
    "full_region": "深圳市 龙岗区",
    "position": {
      "lat": "22.716908",
      "lng": "114.251070"
    }
  },
  {
    "store_name": "小米之家(金基吉祥广场店)",
    "address": "清林路与吉祥路交汇处金基吉祥广场L1S-50号商铺",
    "tel": "0755-28919805",
    "province": "广东省",
    "city": "深圳市",
    "district": "龙岗区",
    "full_region": "深圳市 龙岗区",
    "position": {
      "lat": "22.718930",
      "lng": "114.236756"
    }
  },
  {
    "store_name": "小米之家(平湖天虹商场店)",
    "address": "富安大道8号天虹商场(平湖店)L1层1096",
    "tel": "0755-28264090;13244721917",
    "province": "广东省",
    "city": "深圳市",
    "district": "龙岗区",
    "full_region": "深圳市 龙岗区",
    "position": {
      "lat": "22.682123",
      "lng": "114.125886"
    }
  },
  {
    "store_name": "小米之家(星尚汇店)",
    "address": "龙平西路28-2星尚汇一楼小米之家",
    "tel": [],
    "province": "广东省",
    "city": "深圳市",
    "district": "龙岗区",
    "full_region": "深圳市 龙岗区",
    "position": {
      "lat": "22.729661",
      "lng": "114.230079"
    }
  },
  {
    "store_name": "小米之家(广东深圳宝安区航城和健生活广场专卖店)",
    "address": "洲石路与鹤洲六路交叉处和健生活广场内一楼小米之家",
    "tel": "19129353116",
    "province": "广东省",
    "city": "深圳市",
    "district": "宝安区",
    "full_region": "深圳市 宝安区",
    "position": {
      "lat": "22.625901",
      "lng": "113.861868"
    }
  },
  {
    "store_name": "小米之家",
    "address": "福海街道和平社区桥和路308号百港城E栋107",
    "tel": "18025397691",
    "province": "广东省",
    "city": "深圳市",
    "district": "宝安区",
    "full_region": "深圳市 宝安区",
    "position": {
      "lat": "22.687710",
      "lng": "113.792482"
    }
  },
  {
    "store_name": "小米之家(光明区玉律南海百货店)",
    "address": "玉塘街道玉泉东路20-1号南海百货小米之家",
    "tel": "18938997991",
    "province": "广东省",
    "city": "深圳市",
    "district": "光明区",
    "full_region": "深圳市 光明区",
    "position": {
      "lat": "22.717926",
      "lng": "113.900540"
    }
  },
  {
    "store_name": "小米之家(蓝鲸世界店)",
    "address": "龙光广场L1层10号商铺",
    "tel": "0755-21061787;13410225530",
    "province": "广东省",
    "city": "深圳市",
    "district": "光明区",
    "full_region": "深圳市 光明区",
    "position": {
      "lat": "22.746357",
      "lng": "113.934741"
    }
  },
  {
    "store_name": "小米之家(宝安西乡黄田专卖店)",
    "address": "航城街道黄田社区黄田路西十巷1号101",
    "tel": [],
    "province": "广东省",
    "city": "深圳市",
    "district": "宝安区",
    "full_region": "深圳市 宝安区",
    "position": {
      "lat": "22.626777",
      "lng": "113.845759"
    }
  },
  {
    "store_name": "小米之家(广东深圳宝安区勤诚达k+广场专卖店)",
    "address": "新安街道宝安勤诚达K广场北门一楼",
    "tel": [],
    "province": "广东省",
    "city": "深圳市",
    "district": "宝安区",
    "full_region": "深圳市 宝安区",
    "position": {
      "lat": "22.573626",
      "lng": "113.911037"
    }
  },
  {
    "store_name": "小米之家(宝安华强广场店)",
    "address": "福海街道凤塘大道153号华强广场L1-18小米之家",
    "tel": "13424210291",
    "province": "广东省",
    "city": "深圳市",
    "district": "宝安区",
    "full_region": "深圳市 宝安区",
    "position": {
      "lat": "22.699820",
      "lng": "113.816430"
    }
  },
  {
    "store_name": "小米之家(平湖双拥街店)",
    "address": "深圳龙岗平湖双拥街112号",
    "tel": "0755-89685001;15907669309",
    "province": "广东省",
    "city": "深圳市",
    "district": "龙岗区",
    "full_region": "深圳市 龙岗区",
    "position": {
      "lat": "22.698126",
      "lng": "114.132670"
    }
  },
  {
    "store_name": "小米之家(百佳华观澜领域广场店)",
    "address": "观湖街道观澜大道388号百佳华领域广场L104A铺小米之家",
    "tel": "0755-27765137",
    "province": "广东省",
    "city": "深圳市",
    "district": "龙华区",
    "full_region": "深圳市 龙华区",
    "position": {
      "lat": "22.715437",
      "lng": "114.056020"
    }
  },
  {
    "store_name": "小米之家(广东深圳南山区泛海城市广场店)",
    "address": "南山街道荔湾社区前海路0070号泛海城市广场1栋103",
    "tel": "0755-21600809",
    "province": "广东省",
    "city": "深圳市",
    "district": "南山区",
    "full_region": "深圳市 南山区",
    "position": {
      "lat": "22.494593",
      "lng": "113.892641"
    }
  },
  {
    "store_name": "小米之家(广东深圳光明区华润N次方公园专卖店)",
    "address": "凤凰街道华润光明N次方公园路L1-08a小米之家",
    "tel": [],
    "province": "广东省",
    "city": "深圳市",
    "district": "光明区",
    "full_region": "深圳市 光明区",
    "position": {
      "lat": "22.727086",
      "lng": "113.932336"
    }
  },
  {
    "store_name": "小米之家(四联电信厅分店)",
    "address": "兴旺路9号(中国电信)",
    "tel": "15112310237",
    "province": "广东省",
    "city": "深圳市",
    "district": "龙岗区",
    "full_region": "深圳市 龙岗区",
    "position": {
      "lat": "22.653650",
      "lng": "114.198486"
    }
  },
  {
    "store_name": "小米之家(荣德广场店)",
    "address": "横岗街道华侨新村社区荣德时代广场1143",
    "tel": "0755-28505096",
    "province": "广东省",
    "city": "深圳市",
    "district": "龙岗区",
    "full_region": "深圳市 龙岗区",
    "position": {
      "lat": "22.651484",
      "lng": "114.209960"
    }
  },
  {
    "store_name": "小米之家(福永大道第二专卖店)",
    "address": "福永街道福永大道1-8号",
    "tel": "19328713986",
    "province": "广东省",
    "city": "深圳市",
    "district": "宝安区",
    "full_region": "深圳市 宝安区",
    "position": {
      "lat": "22.673348",
      "lng": "113.827615"
    }
  },
  {
    "store_name": "小米之家(龙岗区仁恒梦中心店)",
    "address": "恒爱二路仁恒梦中心(愉园地铁站C口步行410米)",
    "tel": "0755-28959288",
    "province": "广东省",
    "city": "深圳市",
    "district": "龙岗区",
    "full_region": "深圳市 龙岗区",
    "position": {
      "lat": "22.730194",
      "lng": "114.224725"
    }
  },
  {
    "store_name": "小米之家(广东深圳宝安区上南路专卖店)",
    "address": "沙井上南大街198号小米之家",
    "tel": "0755-23149260",
    "province": "广东省",
    "city": "深圳市",
    "district": "宝安区",
    "full_region": "深圳市 宝安区",
    "position": {
      "lat": "22.718929",
      "lng": "113.842458"
    }
  },
  {
    "store_name": "小米之家(同泰时代店)",
    "address": "宝安大道6259号同泰时代广场L1层小米之家",
    "tel": "17383692151",
    "province": "广东省",
    "city": "深圳市",
    "district": "宝安区",
    "full_region": "深圳市 宝安区",
    "position": {
      "lat": "22.678573",
      "lng": "113.804399"
    }
  },
  {
    "store_name": "小米之家(深圳锦泰城专卖店)",
    "address": "龙岗大道6001号锦泰城商业广场A130号",
    "tel": "0755-89881866",
    "province": "广东省",
    "city": "深圳市",
    "district": "龙岗区",
    "full_region": "深圳市 龙岗区",
    "position": {
      "lat": "22.723418",
      "lng": "114.266584"
    }
  },
  {
    "store_name": "小米之家(龙岗天光城店)",
    "address": "龙城街道爱联社区龙岗大道1099号龙岗天光城2-L1-015",
    "tel": [],
    "province": "广东省",
    "city": "深圳市",
    "district": "龙岗区",
    "full_region": "深圳市 龙岗区",
    "position": {
      "lat": "22.695572",
      "lng": "114.232347"
    }
  },
  {
    "store_name": "小米之家(广东深圳南山区水湾1979店)",
    "address": "招商街道广东省深圳市南山区荔园路8号水湾1979购物中心1层",
    "tel": "0755-26865879",
    "province": "广东省",
    "city": "深圳市",
    "district": "南山区",
    "full_region": "深圳市 南山区",
    "position": {
      "lat": "22.490076",
      "lng": "113.918981"
    }
  },
  {
    "store_name": "小米之家(广东深圳宝安区福永天虹专卖店)",
    "address": "福永街道兴围社区兴华路2号星航华府四期101-401天虹商场(福永店)F1层",
    "tel": "0755-23500541",
    "province": "广东省",
    "city": "深圳市",
    "district": "宝安区",
    "full_region": "深圳市 宝安区",
    "position": {
      "lat": "22.642514",
      "lng": "113.833595"
    }
  },
  {
    "store_name": "小米之家(双拥街第二专卖店)",
    "address": "平湖街道凤凰社区双拥街18号",
    "tel": "0755-28746865",
    "province": "广东省",
    "city": "深圳市",
    "district": "龙岗区",
    "full_region": "深圳市 龙岗区",
    "position": {
      "lat": "22.696361",
      "lng": "114.129909"
    }
  },
  {
    "store_name": "小米之家石岩大道专卖店",
    "address": "石岩路12-24",
    "tel": "17788783405",
    "province": "广东省",
    "city": "深圳市",
    "district": "宝安区",
    "full_region": "深圳市 宝安区",
    "position": {
      "lat": "22.675164",
      "lng": "113.939927"
    }
  },
  {
    "store_name": "小米之家(广东深圳宝安区西乡金港城专卖店)",
    "address": "宝安大道4009号金港华庭沃尔玛1F0001&0013号铺",
    "tel": "18126331415",
    "province": "广东省",
    "city": "深圳市",
    "district": "宝安区",
    "full_region": "深圳市 宝安区",
    "position": {
      "lat": "22.581825",
      "lng": "113.861927"
    }
  },
  {
    "store_name": "小米之家(宝安东方新天地店)",
    "address": "松岗街道东方社区东方大道36号联投东方华府一期L162东方新天地一楼小米之家",
    "tel": "18928428956",
    "province": "广东省",
    "city": "深圳市",
    "district": "宝安区",
    "full_region": "深圳市 宝安区",
    "position": {
      "lat": "22.760324",
      "lng": "113.858520"
    }
  },
  {
    "store_name": "小米之家广东深圳南山区南新路专卖店",
    "address": "南新路3012号",
    "tel": [],
    "province": "广东省",
    "city": "深圳市",
    "district": "南山区",
    "full_region": "深圳市 南山区",
    "position": {
      "lat": "22.533723",
      "lng": "113.919486"
    }
  },
  {
    "store_name": "小米之家(龙华三联路兴万和店)",
    "address": "龙华街道三联路兴万和超市一楼小米之家",
    "tel": "18025397871",
    "province": "广东省",
    "city": "深圳市",
    "district": "龙华区",
    "full_region": "深圳市 龙华区",
    "position": {
      "lat": "22.666956",
      "lng": "114.034768"
    }
  },
  {
    "store_name": "小米之家(松柏天虹商场店)",
    "address": "横岗街道龙岗大道与保康路交汇处天虹商场松柏店一楼",
    "tel": [],
    "province": "广东省",
    "city": "深圳市",
    "district": "龙岗区",
    "full_region": "深圳市 龙岗区",
    "position": {
      "lat": "22.649260",
      "lng": "114.211246"
    }
  },
  {
    "store_name": "小米之家南岭人人乐",
    "address": "南岭东路28号南岭购物广场一楼小米之家",
    "tel": "13823226726",
    "province": "广东省",
    "city": "深圳市",
    "district": "龙岗区",
    "full_region": "深圳市 龙岗区",
    "position": {
      "lat": "22.611758",
      "lng": "114.150985"
    }
  },
  {
    "store_name": "小米之家(深圳东海百货店)",
    "address": "永福路120号A4铺小米之家",
    "tel": [],
    "province": "广东省",
    "city": "深圳市",
    "district": "宝安区",
    "full_region": "深圳市 宝安区",
    "position": {
      "lat": "22.687861",
      "lng": "113.802136"
    }
  },
  {
    "store_name": "小米之家(广东深圳宝安区石岩塘头东海百货专卖店)",
    "address": "东海百货石岩塘头店一楼小米之家",
    "tel": "18025397715",
    "province": "广东省",
    "city": "深圳市",
    "district": "宝安区",
    "full_region": "深圳市 宝安区",
    "position": {
      "lat": "22.664226",
      "lng": "113.916837"
    }
  },
  {
    "store_name": "小米之家广东深圳宝安区福永大道专卖店",
    "address": "福永大道212号(怀德地铁站B1口步行400米)",
    "tel": "0755-23206589;0755-23595986",
    "province": "广东省",
    "city": "深圳市",
    "district": "宝安区",
    "full_region": "深圳市 宝安区",
    "position": {
      "lat": "22.669686",
      "lng": "113.822139"
    }
  },
  {
    "store_name": "小米之家(龙岗万科广场店)",
    "address": "龙翔大道7188号万科广场L1层28A",
    "tel": "18138855634",
    "province": "广东省",
    "city": "深圳市",
    "district": "龙岗区",
    "full_region": "深圳市 龙岗区",
    "position": {
      "lat": "22.713796",
      "lng": "114.242867"
    }
  },
  {
    "store_name": "小米之家(龙岗区君盛百货专卖店)",
    "address": "沃尔玛(君盛百货店)零食冒险记旁",
    "tel": "13163766595",
    "province": "广东省",
    "city": "深圳市",
    "district": "龙岗区",
    "full_region": "深圳市 龙岗区",
    "position": {
      "lat": "22.729825",
      "lng": "114.268975"
    }
  },
  {
    "store_name": "小米之家(深圳沙井天虹专卖店)",
    "address": "新桥街道沙企社区创新路天虹天虹商场101号1008B铺",
    "tel": "0755-23344355",
    "province": "广东省",
    "city": "深圳市",
    "district": "宝安区",
    "full_region": "深圳市 宝安区",
    "position": {
      "lat": "22.720547",
      "lng": "113.829894"
    }
  },
  {
    "store_name": "小米之家(广东深圳宝安区益田假日天地店)",
    "address": "福永街道广东省深圳市宝安区福泰路益田假日天地L1-08",
    "tel": "0755-23359325;18998941081",
    "province": "广东省",
    "city": "深圳市",
    "district": "宝安区",
    "full_region": "深圳市 宝安区",
    "position": {
      "lat": "22.669595",
      "lng": "113.827579"
    }
  },
  {
    "store_name": "小米之家(广东深圳龙华区章阁专卖店)",
    "address": "港湾百货",
    "tel": "0755-23173221",
    "province": "广东省",
    "city": "深圳市",
    "district": "龙华区",
    "full_region": "深圳市 龙华区",
    "position": {
      "lat": "22.743191",
      "lng": "114.017293"
    }
  },
  {
    "store_name": "小米之家(坪山益田店)",
    "address": "坪山街道深汕路与东纵路交汇六合城商业广场L1-12-2",
    "tel": "0755-84518673;15913924668",
    "province": "广东省",
    "city": "深圳市",
    "district": "坪山区",
    "full_region": "深圳市 坪山区",
    "position": {
      "lat": "22.693214",
      "lng": "114.338951"
    }
  },
  {
    "store_name": "小米之家(宝安区新沙天虹购物中心店)",
    "address": "沙井街道东塘社区西环路2105号天虹商场一层129-2铺小米之家",
    "tel": "0755-86100090",
    "province": "广东省",
    "city": "深圳市",
    "district": "宝安区",
    "full_region": "深圳市 宝安区",
    "position": {
      "lat": "22.729285",
      "lng": "113.800219"
    }
  },
  {
    "store_name": "小米之家(F-TOWN方糖专卖店)",
    "address": "龙城街道黄阁路2122号小米之家",
    "tel": "0755-89587059",
    "province": "广东省",
    "city": "深圳市",
    "district": "龙岗区",
    "full_region": "深圳市 龙岗区",
    "position": {
      "lat": "22.724879",
      "lng": "114.217426"
    }
  },
  {
    "store_name": "小米之家(坪山老街店)",
    "address": "建设路47-10(坪山围地铁站B口步行360米)",
    "tel": "18126455006",
    "province": "广东省",
    "city": "深圳市",
    "district": "坪山区",
    "full_region": "深圳市 坪山区",
    "position": {
      "lat": "22.690125",
      "lng": "114.346224"
    }
  },
  {
    "store_name": "小米之家(广东深圳坪山区天虹商场专卖店)",
    "address": "坪山街道六联社区锦龙大道16号东晟时代花园3栋1-02",
    "tel": "15302692242",
    "province": "广东省",
    "city": "深圳市",
    "district": "坪山区",
    "full_region": "深圳市 坪山区",
    "position": {
      "lat": "22.679372",
      "lng": "114.329737"
    }
  },
  {
    "store_name": "小米之家(广东深圳市龙岗区摩尔城专卖店)",
    "address": "龙岗街道深圳市龙岗区龙岗街道平南社区龙岗大道860号摩尔城1楼小米之家",
    "tel": "0755-28281619",
    "province": "广东省",
    "city": "深圳市",
    "district": "龙岗区",
    "full_region": "深圳市 龙岗区",
    "position": {
      "lat": "22.722066",
      "lng": "114.267501"
    }
  },
  {
    "store_name": "小米之家(深圳龙华壹方天地A区汽车体验店)",
    "address": "龙华街道景龙社区人民路4022号壹方天地A区L1-053A/055",
    "tel": "0755-23766335;0755-29366335",
    "province": "广东省",
    "city": "深圳市",
    "district": "龙华区",
    "full_region": "深圳市 龙华区",
    "position": {
      "lat": "22.649909",
      "lng": "114.027666"
    }
  },
  {
    "store_name": "小米之家(中粮悦港澳欢乐城店)",
    "address": "松白路5019-70",
    "tel": "17602550103",
    "province": "广东省",
    "city": "深圳市",
    "district": "光明区",
    "full_region": "深圳市 光明区",
    "position": {
      "lat": "22.777558",
      "lng": "113.889028"
    }
  },
  {
    "store_name": "小米之家(公明长春路店)",
    "address": "公明街道长春南路一排1号",
    "tel": "0755-27296189",
    "province": "广东省",
    "city": "深圳市",
    "district": "光明区",
    "full_region": "深圳市 光明区",
    "position": {
      "lat": "22.779192",
      "lng": "113.893397"
    }
  },
  {
    "store_name": "小米之家广东深圳南山区来福士广场店",
    "address": "南海大道深圳来福士广场B1层04/05商铺",
    "tel": "0755-26921706",
    "province": "广东省",
    "city": "深圳市",
    "district": "南山区",
    "full_region": "深圳市 南山区",
    "position": {
      "lat": "22.514146",
      "lng": "113.926089"
    }
  },
  {
    "store_name": "小米之家(广东深圳龙岗区龙岗街道双龙专卖店)",
    "address": "小米授权服务中心(双龙店)",
    "tel": "0755-83757192;0755-88868622;13537736172",
    "province": "广东省",
    "city": "深圳市",
    "district": "龙岗区",
    "full_region": "深圳市 龙岗区",
    "position": {
      "lat": "22.728729",
      "lng": "114.278758"
    }
  },
  {
    "store_name": "小米之家雪花科创城专卖店",
    "address": "新安街道雪花科创城负一层B107商铺",
    "tel": "18018759074",
    "province": "广东省",
    "city": "深圳市",
    "district": "宝安区",
    "full_region": "深圳市 宝安区",
    "position": {
      "lat": "22.582467",
      "lng": "113.921197"
    }
  },
  {
    "store_name": "小米之家(前海科兴科学园专卖店)",
    "address": "西乡街道前海科兴科学园2栋L1楼26号商铺",
    "tel": "0755-29988569",
    "province": "广东省",
    "city": "深圳市",
    "district": "宝安区",
    "full_region": "深圳市 宝安区",
    "position": {
      "lat": "22.572924",
      "lng": "113.851464"
    }
  },
  {
    "store_name": "小米之家(南约宏佰百货店)",
    "address": "南约社区南约综合楼一楼A01铺",
    "tel": "19076191075",
    "province": "广东省",
    "city": "深圳市",
    "district": "龙岗区",
    "full_region": "深圳市 龙岗区",
    "position": {
      "lat": "22.689459",
      "lng": "114.278090"
    }
  },
  {
    "store_name": "小米之家(双龙富佳街店)",
    "address": "龙岗街道广东省深圳市龙岗区龙平东路145-53",
    "tel": "13823612552",
    "province": "广东省",
    "city": "深圳市",
    "district": "龙岗区",
    "full_region": "深圳市 龙岗区",
    "position": {
      "lat": "22.729211",
      "lng": "114.274464"
    }
  },
  {
    "store_name": "小米之家(宝安区兆禾里专卖店)",
    "address": "松岗街道松岗社区松白路7038号兆禾里1F151号铺小米之家",
    "tel": "0755-27719986;18620387372",
    "province": "广东省",
    "city": "深圳市",
    "district": "宝安区",
    "full_region": "深圳市 宝安区",
    "position": {
      "lat": "22.769921",
      "lng": "113.848175"
    }
  },
  {
    "store_name": "小米之家(悦阾space购物中心店)",
    "address": "比亚迪路4045号悦阾SPACE购物中心F1层",
    "tel": "18682281712",
    "province": "广东省",
    "city": "深圳市",
    "district": "坪山区",
    "full_region": "深圳市 坪山区",
    "position": {
      "lat": "22.679535",
      "lng": "114.341327"
    }
  },
  {
    "store_name": "小米之家(龙坪天虹商场店)",
    "address": "甲片路82号财富城天虹1F1006铺小米之家",
    "tel": "0755-82926989",
    "province": "广东省",
    "city": "深圳市",
    "district": "坪山区",
    "full_region": "深圳市 坪山区",
    "position": {
      "lat": "22.703526",
      "lng": "114.339260"
    }
  },
  {
    "store_name": "小米之家(深圳宝安百佳华店)",
    "address": "松岗街道松岗百佳华商场1楼C1601-01铺",
    "tel": "15338858232",
    "province": "广东省",
    "city": "深圳市",
    "district": "宝安区",
    "full_region": "深圳市 宝安区",
    "position": {
      "lat": "22.767620",
      "lng": "113.847646"
    }
  },
  {
    "store_name": "小米之家(宝安沙井电信厅店)",
    "address": "沙井镇博岗大道1号沙井电信厅",
    "tel": "13232693362",
    "province": "广东省",
    "city": "深圳市",
    "district": "宝安区",
    "full_region": "深圳市 宝安区",
    "position": {
      "lat": "22.729612",
      "lng": "113.823104"
    }
  },
  {
    "store_name": "小米之家(广东深圳光明区玉塘中心电信厅专区店)",
    "address": "玉塘街道广东省深圳市光明区田湾路82号",
    "tel": [],
    "province": "广东省",
    "city": "深圳市",
    "district": "光明区",
    "full_region": "深圳市 光明区",
    "position": {
      "lat": "22.727206",
      "lng": "113.905544"
    }
  },
  {
    "store_name": "小米之家(光明广场店)",
    "address": "光翠路188号光明广场L1-116",
    "tel": "0755-23696936",
    "province": "广东省",
    "city": "深圳市",
    "district": "光明区",
    "full_region": "深圳市 光明区",
    "position": {
      "lat": "22.758087",
      "lng": "113.943346"
    }
  },
  {
    "store_name": "小米之家(光明勤诚达K+广场专卖店)",
    "address": "长圳社区长升路与光侨路交叉口勤诚达K广场L1-10铺",
    "tel": "18118705184",
    "province": "广东省",
    "city": "深圳市",
    "district": "光明区",
    "full_region": "深圳市 光明区",
    "position": {
      "lat": "22.722317",
      "lng": "113.914950"
    }
  },
  {
    "store_name": "小米之家(龙岗岁宝店)",
    "address": "龙翔大道6045号岁宝Shirble plaza(龙岗店)小米之家",
    "tel": "13392887751",
    "province": "广东省",
    "city": "深圳市",
    "district": "龙岗区",
    "full_region": "深圳市 龙岗区",
    "position": {
      "lat": "22.710439",
      "lng": "114.236654"
    }
  },
  {
    "store_name": "小米之家(万丰海岸城购物中心店)",
    "address": "新桥街道广东省深圳市宝安区万丰中路244号万丰海岸城商场B馆F119一楼小米之家",
    "tel": [],
    "province": "广东省",
    "city": "深圳市",
    "district": "宝安区",
    "full_region": "深圳市 宝安区",
    "position": {
      "lat": "22.713291",
      "lng": "113.822914"
    }
  },
  {
    "store_name": "小米之家(深圳宝安西乡簕竹角专卖店)",
    "address": "航城街道黄麻布社区簕竹角同富街3栋60号",
    "tel": "0755-23011985;15177295335",
    "province": "广东省",
    "city": "深圳市",
    "district": "宝安区",
    "full_region": "深圳市 宝安区",
    "position": {
      "lat": "22.657866",
      "lng": "113.862997"
    }
  },
  {
    "store_name": "小米之家",
    "address": "山门燕罗路一巷与上山门商住楼二巷交叉口北20米",
    "tel": [],
    "province": "广东省",
    "city": "深圳市",
    "district": "宝安区",
    "full_region": "深圳市 宝安区",
    "position": {
      "lat": "22.773573",
      "lng": "113.854102"
    }
  },
  {
    "store_name": "小米之家(小米之家广东深圳宝安区国际机场店)",
    "address": "宝安机场T3航站楼F4国内出发厅(4L-01-05/4L-01-06)",
    "tel": "0755-23453157;18807739014",
    "province": "广东省",
    "city": "深圳市",
    "district": "宝安区",
    "full_region": "深圳市 宝安区",
    "position": {
      "lat": "22.624475",
      "lng": "113.813125"
    }
  },
  {
    "store_name": "小米之家(深圳宝安大仟里专卖店桃源居移动厅分店)",
    "address": "西乡街道前进二路桃源居192号",
    "tel": "13232693362",
    "province": "广东省",
    "city": "深圳市",
    "district": "宝安区",
    "full_region": "深圳市 宝安区",
    "position": {
      "lat": "22.615283",
      "lng": "113.861275"
    }
  },
  {
    "store_name": "小米之家(广东深圳宝安区新领汇购物广场店)",
    "address": "福海街道塘尾社区和沙路48-5",
    "tel": "0755-27889579",
    "province": "广东省",
    "city": "深圳市",
    "district": "宝安区",
    "full_region": "深圳市 宝安区",
    "position": {
      "lat": "22.700714",
      "lng": "113.804509"
    }
  },
  {
    "store_name": "小米之家(深圳沙井京基百纳广场手机专卖店)",
    "address": "沙井街道沙头社区沙井路168号京基百纳广场1层123号铺小米之家",
    "tel": "0755-23000027",
    "province": "广东省",
    "city": "深圳市",
    "district": "宝安区",
    "full_region": "深圳市 宝安区",
    "position": {
      "lat": "22.728128",
      "lng": "113.806217"
    }
  },
  {
    "store_name": "小米之家(同泰时代广场专卖店)(装修中)",
    "address": "福海街道宝安大道6259号同泰时代广场L1层65号",
    "tel": "0755-23211917",
    "province": "广东省",
    "city": "深圳市",
    "district": "宝安区",
    "full_region": "深圳市 宝安区",
    "position": {
      "lat": "22.678985",
      "lng": "113.804399"
    }
  },
  {
    "store_name": "小米之家(深圳光明大仟里购物中心专卖店)",
    "address": "松白路光明大仟里4699号B1层B145号",
    "tel": "0755-23246106",
    "province": "广东省",
    "city": "深圳市",
    "district": "光明区",
    "full_region": "深圳市 光明区",
    "position": {
      "lat": "22.775285",
      "lng": "113.893759"
    }
  },
  {
    "store_name": "小米之家(广东深圳龙岗区创城·CC one购物中心专卖店)",
    "address": "龙岗大道与教育路交汇处(创城·CC one购物中心)小米之家",
    "tel": "0755-28396660",
    "province": "广东省",
    "city": "深圳市",
    "district": "龙岗区",
    "full_region": "深圳市 龙岗区",
    "position": {
      "lat": "22.765099",
      "lng": "114.303762"
    }
  },
  {
    "store_name": "小米之家上南大街专卖店",
    "address": "新桥街道广东省深圳市宝安区上南大街263号",
    "tel": [],
    "province": "广东省",
    "city": "深圳市",
    "district": "宝安区",
    "full_region": "深圳市 宝安区",
    "position": {
      "lat": "22.720235",
      "lng": "113.840225"
    }
  },
  {
    "store_name": "小米之家(广东深圳宝安区沙井中心路专卖店)",
    "address": "万丰村中心路23号一楼(伯爵婚纱摄影楼下7天连锁酒店旁)",
    "tel": "0755-27273764",
    "province": "广东省",
    "city": "深圳市",
    "district": "宝安区",
    "full_region": "深圳市 宝安区",
    "position": {
      "lat": "22.726458",
      "lng": "113.828689"
    }
  },
  {
    "store_name": "小米之家(金田风华苑购物广场店)",
    "address": "坑梓街道人民西路23号西区2栋106",
    "tel": "19129359609",
    "province": "广东省",
    "city": "深圳市",
    "district": "坪山区",
    "full_region": "深圳市 坪山区",
    "position": {
      "lat": "22.744904",
      "lng": "114.374034"
    }
  },
  {
    "store_name": "小米之家(花生唐购物中心专卖店)",
    "address": "金葵西路花生唐购物中心1层012B013铺",
    "tel": "0755-89668115",
    "province": "广东省",
    "city": "深圳市",
    "district": "大鹏新区",
    "full_region": "深圳市 大鹏新区",
    "position": {
      "lat": "22.625175",
      "lng": "114.419771"
    }
  },
  {
    "store_name": "小米之家公明天虹店",
    "address": "公明街道振明路122号公明天虹商场1F层一楼小米之家",
    "tel": "0755-21021009",
    "province": "广东省",
    "city": "深圳市",
    "district": "光明区",
    "full_region": "深圳市 光明区",
    "position": {
      "lat": "22.782345",
      "lng": "113.892892"
    }
  },
  {
    "store_name": "小米之家(宝安松岗满京华店)",
    "address": "松岗街道松岗满京华·满纷汇一楼小米之家(宝安松岗满京华店)",
    "tel": "18938863629",
    "province": "广东省",
    "city": "深圳市",
    "district": "宝安区",
    "full_region": "深圳市 宝安区",
    "position": {
      "lat": "22.782967",
      "lng": "113.835242"
    }
  },
  {
    "store_name": "小米之家(广东深圳宝安区松明大道专卖店)",
    "address": "松岗街道松明大道48号",
    "tel": [],
    "province": "广东省",
    "city": "深圳市",
    "district": "宝安区",
    "full_region": "深圳市 宝安区",
    "position": {
      "lat": "22.766951",
      "lng": "113.842638"
    }
  },
  {
    "store_name": "小米之家(沙井大街移动厅分店)",
    "address": "沙井街道沙头社区沙井路443-483号477-479",
    "tel": "0755-23058836",
    "province": "广东省",
    "city": "深圳市",
    "district": "宝安区",
    "full_region": "深圳市 宝安区",
    "position": {
      "lat": "22.730970",
      "lng": "113.807594"
    }
  },
  {
    "store_name": "小米之家(广东深圳龙岗区双龙柏龙广场专卖店)",
    "address": "龙岗街道平南社区龙岗大道6058号万鑫柏龙商业广场A1039",
    "tel": "15361508176",
    "province": "广东省",
    "city": "深圳市",
    "district": "龙岗区",
    "full_region": "深圳市 龙岗区",
    "position": {
      "lat": "22.727692",
      "lng": "114.277012"
    }
  },
  {
    "store_name": "小米之家(深圳松岗喜港城专卖店)",
    "address": "东方大道115号松岗喜港城F1层",
    "tel": "18938863664",
    "province": "广东省",
    "city": "深圳市",
    "district": "宝安区",
    "full_region": "深圳市 宝安区",
    "position": {
      "lat": "22.764764",
      "lng": "113.842968"
    }
  },
  {
    "store_name": "小米之家(广东深圳坪山区鑫福佳专卖店)",
    "address": "龙田街道竹坑社区鑫福佳购物广场一楼C001号小米之家",
    "tel": "19116411875",
    "province": "广东省",
    "city": "深圳市",
    "district": "坪山区",
    "full_region": "深圳市 坪山区",
    "position": {
      "lat": "22.711203",
      "lng": "114.396640"
    }
  },
  {
    "store_name": "小米之家(宝安区沙井百佳华佳漾汇专卖店)",
    "address": "新桥街道沙企社区沙井中心路百佳华佳漾汇(新桥店)1F层L1007",
    "tel": [],
    "province": "广东省",
    "city": "深圳市",
    "district": "宝安区",
    "full_region": "深圳市 宝安区",
    "position": {
      "lat": "22.733052",
      "lng": "113.828607"
    }
  },
  {
    "store_name": "小米之家(深圳松岗宝利豪庭专卖店)",
    "address": "松岗街道宝利豪庭金开路3-64",
    "tel": "18923870860",
    "province": "广东省",
    "city": "深圳市",
    "district": "宝安区",
    "full_region": "深圳市 宝安区",
    "position": {
      "lat": "22.764097",
      "lng": "113.850553"
    }
  },
  {
    "store_name": "小米之家(燕罗塘下涌店)",
    "address": "燕罗街道塘下涌社区众福路71号71-10",
    "tel": "15012777511",
    "province": "广东省",
    "city": "深圳市",
    "district": "宝安区",
    "full_region": "深圳市 宝安区",
    "position": {
      "lat": "22.799543",
      "lng": "113.841662"
    }
  },
  {
    "store_name": "小米之家(广东深圳龙岗区坪地宜城专卖店)",
    "address": "坪地街道广东省深圳市龙岗区坪地街道中心社区龙岗大道3018号沃尔玛一楼",
    "tel": "18375111192",
    "province": "广东省",
    "city": "深圳市",
    "district": "龙岗区",
    "full_region": "深圳市 龙岗区",
    "position": {
      "lat": "22.767376",
      "lng": "114.305948"
    }
  },
  {
    "store_name": "小米之家深圳罗湖区泥岗红日子专卖店",
    "address": "泥岗西村红日子购物广场一楼小米之家",
    "tel": "15112419003",
    "province": "广东省",
    "city": "深圳市",
    "district": "盐田区",
    "full_region": "深圳市 盐田区",
    "position": {
      "lat": "22.558016",
      "lng": "114.238404"
    }
  },
  {
    "store_name": "小米之家(溪头天源隆专卖店)",
    "address": "松岗街道溪头社区沙江路136号B105",
    "tel": "17620333591",
    "province": "广东省",
    "city": "深圳市",
    "district": "宝安区",
    "full_region": "深圳市 宝安区",
    "position": {
      "lat": "22.774082",
      "lng": "113.834557"
    }
  },
  {
    "store_name": "小米之家(坑梓人民路专卖店)",
    "address": "坑梓街道秀新社区坑梓人民西路55-1",
    "tel": "0755-28380342",
    "province": "广东省",
    "city": "深圳市",
    "district": "坪山区",
    "full_region": "深圳市 坪山区",
    "position": {
      "lat": "22.746656",
      "lng": "114.378138"
    }
  },
  {
    "store_name": "北京小米移动软件有限公司(永新汇店)",
    "address": "东滨路4078号(南油西地铁站C口步行80米)",
    "tel": [],
    "province": "广东省",
    "city": "深圳市",
    "district": "南山区",
    "full_region": "深圳市 南山区",
    "position": {
      "lat": "22.509125",
      "lng": "113.919110"
    }
  },
  {
    "store_name": "小米之家(广东深圳龙华区天虹购物中心专卖店)",
    "address": "民治街道大岭社区中航天逸花园A区L147",
    "tel": "0755-23769689",
    "province": "广东省",
    "city": "深圳市",
    "district": "龙华区",
    "full_region": "深圳市 龙华区",
    "position": {
      "lat": "22.628025",
      "lng": "114.021575"
    }
  },
  {
    "store_name": "小米之家(深圳龙岗万科广场汽车体验店)",
    "address": "龙城街道吉祥社区龙翔大道7188号万科天誉广场L1-28A",
    "tel": [],
    "province": "广东省",
    "city": "深圳市",
    "district": "龙岗区",
    "full_region": "深圳市 龙岗区",
    "position": {
      "lat": "22.713678",
      "lng": "114.243024"
    }
  },
  {
    "store_name": "小米之家售后客户服务中心(卓悦时光店)",
    "address": "沙井街道卓悦时光购物中心一楼L1-22店铺小米之家",
    "tel": [],
    "province": "广东省",
    "city": "深圳市",
    "district": "宝安区",
    "full_region": "深圳市 宝安区",
    "position": {
      "lat": "22.736984",
      "lng": "113.812477"
    }
  }
]