[
    {"name": "XX奶茶-福田1店", "lng": 114.045, "lat": 22.535, "district": "福田区"},
    {"name": "XX奶茶-福田2店", "lng": 114.050, "lat": 22.540, "district": "福田区"},
    {"name": "XX奶茶-福田3店", "lng": 114.060, "lat": 22.550, "district": "福田区"},
    {"name": "XX奶茶-福田4店", "lng": 114.070, "lat": 22.525, "district": "福田区"},
    {"name": "XX奶茶-福田5店", "lng": 114.080, "lat": 22.545, "district": "福田区"},
    {"name": "XX奶茶-福田6店", "lng": 114.090, "lat": 22.555, "district": "福田区"},
    {"name": "XX奶茶-福田7店", "lng": 114.035, "lat": 22.530, "district": "福田区"},
    {"name": "XX奶茶-福田8店", "lng": 114.055, "lat": 22.548, "district": "福田区"},
    {"name": "XX奶茶-福田9店", "lng": 114.065, "lat": 22.552, "district": "福田区"},
    {"name": "XX奶茶-福田10店", "lng": 114.075, "lat": 22.538, "district": "福田区"},
    {"name": "XX奶茶-福田11店", "lng": 114.085, "lat": 22.542, "district": "福田区"},
    {"name": "XX奶茶-福田12店", "lng": 114.095, "lat": 22.536, "district": "福田区"},
    {"name": "XX奶茶-福田13店", "lng": 114.040, "lat": 22.549, "district": "福田区"},
    {"name": "XX奶茶-福田14店", "lng": 114.050, "lat": 22.526, "district": "福田区"},
    {"name": "XX奶茶-福田15店", "lng": 114.060, "lat": 22.532, "district": "福田区"},
    {"name": "XX奶茶-福田16店", "lng": 114.070, "lat": 22.547, "district": "福田区"},
    {"name": "XX奶茶-福田17店", "lng": 114.080, "lat": 22.529, "district": "福田区"},
    {"name": "XX奶茶-福田18店", "lng": 114.090, "lat": 22.534, "district": "福田区"},
    {"name": "XX奶茶-福田19店", "lng": 114.035, "lat": 22.544, "district": "福田区"},
    {"name": "XX奶茶-福田20店", "lng": 114.045, "lat": 22.528, "district": "福田区"},
  
    {"name": "XX奶茶-罗湖1店", "lng": 114.120, "lat": 22.570, "district": "罗湖区"},
    {"name": "XX奶茶-罗湖2店", "lng": 114.130, "lat": 22.580, "district": "罗湖区"},
    {"name": "XX奶茶-罗湖3店", "lng": 114.140, "lat": 22.590, "district": "罗湖区"},
    {"name": "XX奶茶-罗湖4店", "lng": 114.150, "lat": 22.600, "district": "罗湖区"},
    {"name": "XX奶茶-罗湖5店", "lng": 114.110, "lat": 22.560, "district": "罗湖区"},
    {"name": "XX奶茶-罗湖6店", "lng": 114.125, "lat": 22.575, "district": "罗湖区"},



  
    {"name": "XX奶茶-南山1店", "lng": 113.930, "lat": 22.520, "district": "南山区"},
    {"name": "XX奶茶-南山2店", "lng": 113.940, "lat": 22.530, "district": "南山区"},
    {"name": "XX奶茶-南山3店", "lng": 113.950, "lat": 22.540, "district": "南山区"},
    {"name": "XX奶茶-南山4店", "lng": 113.960, "lat": 22.550, "district": "南山区"},
    {"name": "XX奶茶-南山5店", "lng": 113.970, "lat": 22.560, "district": "南山区"},
    {"name": "XX奶茶-南山6店", "lng": 113.980, "lat": 22.570, "district": "南山区"},
    {"name": "XX奶茶-南山7店", "lng": 113.990, "lat": 22.580, "district": "南山区"},
    {"name": "XX奶茶-南山8店", "lng": 113.935, "lat": 22.525, "district": "南山区"},
    {"name": "XX奶茶-南山9店", "lng": 113.945, "lat": 22.535, "district": "南山区"},
    {"name": "XX奶茶-南山10店", "lng": 113.955, "lat": 22.545, "district": "南山区"},
    {"name": "XX奶茶-南山11店", "lng": 113.965, "lat": 22.555, "district": "南山区"},
    {"name": "XX奶茶-南山12店", "lng": 113.975, "lat": 22.565, "district": "南山区"},
    {"name": "XX奶茶-南山13店", "lng": 113.985, "lat": 22.575, "district": "南山区"},
    {"name": "XX奶茶-南山14店", "lng": 113.995, "lat": 22.585, "district": "南山区"},
    {"name": "XX奶茶-南山15店", "lng": 113.938, "lat": 22.528, "district": "南山区"},
    {"name": "XX奶茶-南山16店", "lng": 113.948, "lat": 22.538, "district": "南山区"},
    {"name": "XX奶茶-南山17店", "lng": 113.958, "lat": 22.548, "district": "南山区"},
    {"name": "XX奶茶-南山18店", "lng": 113.968, "lat": 22.558, "district": "南山区"},
    {"name": "XX奶茶-南山19店", "lng": 113.978, "lat": 22.568, "district": "南山区"},
    {"name": "XX奶茶-南山20店", "lng": 113.988, "lat": 22.578, "district": "南山区"},
  
    {"name": "XX奶茶-宝安1店", "lng": 113.850, "lat": 22.600, "district": "宝安区"},
    {"name": "XX奶茶-宝安2店", "lng": 113.860, "lat": 22.610, "district": "宝安区"},
    {"name": "XX奶茶-宝安3店", "lng": 113.870, "lat": 22.620, "district": "宝安区"},
    {"name": "XX奶茶-宝安4店", "lng": 113.880, "lat": 22.630, "district": "宝安区"},
    {"name": "XX奶茶-宝安5店", "lng": 113.890, "lat": 22.640, "district": "宝安区"},
    {"name": "XX奶茶-宝安6店", "lng": 113.900, "lat": 22.650, "district": "宝安区"},
    {"name": "XX奶茶-宝安7店", "lng": 113.910, "lat": 22.660, "district": "宝安区"},
    {"name": "XX奶茶-宝安8店", "lng": 113.920, "lat": 22.670, "district": "宝安区"},
    {"name": "XX奶茶-宝安9店", "lng": 113.930, "lat": 22.680, "district": "宝安区"},
    {"name": "XX奶茶-宝安10店", "lng": 113.940, "lat": 22.690, "district": "宝安区"},

  
    {"name": "XX奶茶-龙岗1店", "lng": 114.200, "lat": 22.700, "district": "龙岗区"},
    {"name": "XX奶茶-龙岗2店", "lng": 114.210, "lat": 22.710, "district": "龙岗区"},
    {"name": "XX奶茶-龙岗3店", "lng": 114.220, "lat": 22.720, "district": "龙岗区"},
    {"name": "XX奶茶-龙岗4店", "lng": 114.230, "lat": 22.730, "district": "龙岗区"},
    {"name": "XX奶茶-龙岗5店", "lng": 114.240, "lat": 22.740, "district": "龙岗区"},
    {"name": "XX奶茶-龙岗6店", "lng": 114.250, "lat": 22.750, "district": "龙岗区"},
    {"name": "XX奶茶-龙岗7店", "lng": 114.260, "lat": 22.760, "district": "龙岗区"},
    {"name": "XX奶茶-龙岗8店", "lng": 114.270, "lat": 22.770, "district": "龙岗区"},
    {"name": "XX奶茶-龙岗9店", "lng": 114.280, "lat": 22.780, "district": "龙岗区"},
    {"name": "XX奶茶-龙岗10店", "lng": 114.290, "lat": 22.790, "district": "龙岗区"},

   
  
    {"name": "XX奶茶-盐田1店", "lng": 114.250, "lat": 22.600, "district": "盐田区"},
    {"name": "XX奶茶-盐田2店", "lng": 114.260, "lat": 22.610, "district": "盐田区"},
    {"name": "XX奶茶-盐田3店", "lng": 114.270, "lat": 22.620, "district": "盐田区"},
    {"name": "XX奶茶-盐田4店", "lng": 114.280, "lat": 22.630, "district": "盐田区"}
  

  ]
  